$GPGGA,125836.400,6228.3261,N,00614.0669,E,1,08,0.94,28.7,M,43.3,M,,*5D
$GPRMC,125836.400,A,6228.3261,N,00614.0669,E,0.38,64.62,270416,,,A*58

$GPGGA,125836.600,6228.3261,N,00614.0669,E,1,08,0.94,28.7,M,43.3,M,,*5F
$GPRMC,125836.600,A,6228.3261,N,00614.0669,E,0.39,68.82,270416,,,A*59

$GPGGA,125836.800,6228.3262,N,00614.0670,E,1,08,0.94,28.7,M,43.3,M,,*5A
$GPRMC,125836.800,A,6228.3262,N,00614.0670,E,0.40,67.99,270416,,,A*57

$GPGGA,125837.000,6228.3262,N,00614.0670,E,1,08,0.94,28.7,M,43.3,M,,*53
$GPRMC,125837.000,A,6228.3262,N,00614.0670,E,0.40,66.39,270416,,,A*55

$GPGGA,125837.200,6228.3262,N,00614.0670,E,1,08,0.94,28.7,M,43.3,M,,*51
$GPRMC,125837.200,A,6228.3262,N,00614.0670,E,0.40,63.63,270416,,,A*5D

$GPGGA,125837.400,6228.3262,N,00614.0671,E,1,08,0.94,28.7,M,43.3,M,,*56
$GPRMC,125837.400,A,6228.3262,N,00614.0671,E,0.40,62.40,270416,,,A*5A

$GPGGA,125837.600,6228.3262,N,00614.0671,E,1,08,0.94,28.7,M,43.3,M,,*54
$GPRMC,125837.600,A,6228.3262,N,00614.0671,E,0.40,62.27,270416,,,A*59

$GPGGA,125837.800,6228.3262,N,00614.0672,E,1,08,0.94,28.7,M,43.3,M,,*59
$GPRMC,125837.800,A,6228.3262,N,00614.0672,E,0.40,61.63,270416,,,A*57

$GPGGA,125838.000,6228.3262,N,00614.0672,E,1,08,0.94,28.7,M,43.3,M,,*5E
$GPRMC,125838.000,A,6228.3262,N,00614.0672,E,0.41,61.97,270416,,,A*5A

$GPGGA,125838.200,6228.3262,N,00614.0673,E,1,08,0.94,28.7,M,43.3,M,,*5D
$GPRMC,125838.200,A,6228.3262,N,00614.0673,E,0.41,63.87,270416,,,A*5A

$GPGGA,125838.400,6228.3262,N,00614.0673,E,1,08,0.94,28.7,M,43.3,M,,*5B
$GPRMC,125838.400,A,6228.3262,N,00614.0673,E,0.43,67.23,270416,,,A*54

$GPGGA,125838.600,6228.3262,N,00614.0674,E,1,08,0.94,28.7,M,43.3,M,,*5E
$GPRMC,125838.600,A,6228.3262,N,00614.0674,E,0.44,73.99,270416,,,A*52

$GPGGA,125838.800,6228.3262,N,00614.0674,E,1,08,0.94,28.7,M,43.3,M,,*50
$GPRMC,125838.800,A,6228.3262,N,00614.0674,E,0.44,77.15,270416,,,A*5C

$GPGGA,125839.000,6228.3262,N,00614.0675,E,1,08,0.94,28.7,M,43.3,M,,*58
$GPRMC,125839.000,A,6228.3262,N,00614.0675,E,0.45,77.23,270416,,,A*50

$GPGGA,125839.200,6228.3263,N,00614.0675,E,1,08,0.94,28.7,M,43.3,M,,*5B
$GPRMC,125839.200,A,6228.3263,N,00614.0675,E,0.46,78.24,270416,,,A*58

$GPGGA,125839.400,6228.3263,N,00614.0676,E,1,08,0.94,28.7,M,43.3,M,,*5E
$GPRMC,125839.400,A,6228.3263,N,00614.0676,E,0.47,79.27,270416,,,A*5E

$GPGGA,125839.600,6228.3263,N,00614.0676,E,1,08,0.94,28.7,M,43.3,M,,*5C
$GPRMC,125839.600,A,6228.3263,N,00614.0676,E,0.48,79.04,270416,,,A*52

$GPGGA,125839.800,6228.3263,N,00614.0677,E,1,08,0.94,28.7,M,43.3,M,,*53
$GPRMC,125839.800,A,6228.3263,N,00614.0677,E,0.47,81.55,270416,,,A*51

$GPGGA,125840.000,6228.3263,N,00614.0677,E,1,08,0.94,28.7,M,43.3,M,,*55
$GPRMC,125840.000,A,6228.3263,N,00614.0677,E,0.47,80.98,270416,,,A*57

$GPGGA,125840.200,6228.3263,N,00614.0678,E,1,08,0.94,28.7,M,43.3,M,,*58
$GPRMC,125840.200,A,6228.3263,N,00614.0678,E,0.46,80.16,270416,,,A*5D

$GPGGA,125840.400,6228.3263,N,00614.0678,E,1,08,0.94,28.7,M,43.3,M,,*5E
$GPRMC,125840.400,A,6228.3263,N,00614.0678,E,0.45,80.08,270416,,,A*57

$GPGGA,125840.600,6228.3263,N,00614.0679,E,1,08,0.94,28.7,M,43.3,M,,*5D
$GPRMC,125840.600,A,6228.3263,N,00614.0679,E,0.44,78.88,270416,,,A*5A

$GPGGA,125840.800,6228.3263,N,00614.0679,E,1,08,0.94,28.7,M,43.3,M,,*53
$GPRMC,125840.800,A,6228.3263,N,00614.0679,E,0.42,77.75,270416,,,A*5F

$GPGGA,125841.000,6228.3263,N,00614.0680,E,1,08,0.94,28.7,M,43.3,M,,*5C
$GPRMC,125841.000,A,6228.3263,N,00614.0680,E,0.42,79.99,270416,,,A*5C

$GPGGA,125841.200,6228.3263,N,00614.0680,E,1,08,0.94,28.7,M,43.3,M,,*5E
$GPRMC,125841.200,A,6228.3263,N,00614.0680,E,0.41,82.42,270416,,,A*5F

$GPGGA,125841.400,6228.3263,N,00614.0681,E,1,08,0.94,28.7,M,43.3,M,,*59
$GPRMC,125841.400,A,6228.3263,N,00614.0681,E,0.40,85.39,270416,,,A*52

$GPGGA,125841.600,6228.3263,N,00614.0681,E,1,08,0.94,28.7,M,43.3,M,,*5B
$GPRMC,125841.600,A,6228.3263,N,00614.0681,E,0.38,87.07,270416,,,A*50

$GPGGA,125841.800,6228.3263,N,00614.0682,E,1,08,0.94,28.7,M,43.3,M,,*56
$GPRMC,125841.800,A,6228.3263,N,00614.0682,E,0.36,88.97,270416,,,A*55

$GPGGA,125842.000,6228.3263,N,00614.0682,E,1,08,0.94,28.7,M,43.3,M,,*5D
$GPRMC,125842.000,A,6228.3263,N,00614.0682,E,0.35,91.59,270416,,,A*57

$GPGGA,125842.200,6228.3263,N,00614.0683,E,1,08,0.94,28.7,M,43.3,M,,*5E
$GPRMC,125842.200,A,6228.3263,N,00614.0683,E,0.33,94.05,270416,,,A*5E

$GPGGA,125842.400,6228.3263,N,00614.0683,E,1,08,0.94,28.7,M,43.3,M,,*58
$GPRMC,125842.400,A,6228.3263,N,00614.0683,E,0.31,96.05,270416,,,A*58

$GPGGA,125842.600,6228.3263,N,00614.0683,E,1,08,0.94,28.7,M,43.3,M,,*5A
$GPRMC,125842.600,A,6228.3263,N,00614.0683,E,0.29,98.39,270416,,,A*52

$GPGGA,125842.800,6228.3263,N,00614.0684,E,1,08,0.94,28.7,M,43.3,M,,*53
$GPRMC,125842.800,A,6228.3263,N,00614.0684,E,0.29,102.53,270416,,,A*65

$GPGGA,125843.000,6228.3263,N,00614.0684,E,1,08,0.94,28.7,M,43.3,M,,*5A
$GPRMC,125843.000,A,6228.3263,N,00614.0684,E,0.28,102.95,270416,,,A*67

$GPGGA,125843.200,6228.3263,N,00614.0684,E,1,08,0.94,28.7,M,43.3,M,,*58
$GPRMC,125843.200,A,6228.3263,N,00614.0684,E,0.27,103.55,270416,,,A*67

$GPGGA,125843.400,6228.3263,N,00614.0685,E,1,08,0.94,28.7,M,43.3,M,,*5F
$GPRMC,125843.400,A,6228.3263,N,00614.0685,E,0.27,105.16,270416,,,A*61

$GPGGA,125843.600,6228.3263,N,00614.0685,E,1,08,0.94,28.7,M,43.3,M,,*5D
$GPRMC,125843.600,A,6228.3263,N,00614.0685,E,0.26,108.83,270416,,,A*63

$GPGGA,125843.800,6228.3263,N,00614.0685,E,1,08,0.94,28.7,M,43.3,M,,*53
$GPRMC,125843.800,A,6228.3263,N,00614.0685,E,0.25,115.67,270416,,,A*68

$GPGGA,125844.000,6228.3263,N,00614.0686,E,1,08,0.94,28.7,M,43.3,M,,*5F
$GPRMC,125844.000,A,6228.3263,N,00614.0686,E,0.24,122.18,270416,,,A*69

$GPGGA,125844.200,6228.3263,N,00614.0686,E,1,08,0.94,28.7,M,43.3,M,,*5D
$GPRMC,125844.200,A,6228.3263,N,00614.0686,E,0.23,129.70,270416,,,A*69

$GPGGA,125844.400,6228.3262,N,00614.0686,E,1,08,0.94,28.7,M,43.3,M,,*5A
$GPRMC,125844.400,A,6228.3262,N,00614.0686,E,0.24,136.26,270416,,,A*64

$GPGGA,125844.600,6228.3262,N,00614.0686,E,1,08,0.94,28.7,M,43.3,M,,*58
$GPRMC,125844.600,A,6228.3262,N,00614.0686,E,0.25,142.91,270416,,,A*68

$GPGGA,125844.800,6228.3262,N,00614.0686,E,1,08,0.94,28.7,M,43.3,M,,*56
$GPRMC,125844.800,A,6228.3262,N,00614.0686,E,0.25,148.25,270416,,,A*63

$GPGGA,125845.000,6228.3262,N,00614.0686,E,1,08,0.94,28.7,M,43.3,M,,*5F
$GPRMC,125845.000,A,6228.3262,N,00614.0686,E,0.26,152.25,270416,,,A*62

$GPGGA,125845.200,6228.3262,N,00614.0687,E,1,08,0.94,28.7,M,43.3,M,,*5C
$GPRMC,125845.200,A,6228.3262,N,00614.0687,E,0.26,155.10,270416,,,A*60

$GPGGA,125845.400,6228.3262,N,00614.0687,E,1,08,0.94,28.7,M,43.3,M,,*5A
$GPRMC,125845.400,A,6228.3262,N,00614.0687,E,0.26,160.30,270416,,,A*62

$GPGGA,125845.600,6228.3262,N,00614.0687,E,1,08,0.94,28.7,M,43.3,M,,*58
$GPRMC,125845.600,A,6228.3262,N,00614.0687,E,0.26,163.69,270416,,,A*6F

$GPGGA,125845.800,6228.3262,N,00614.0687,E,1,08,0.94,28.7,M,43.3,M,,*56
$GPRMC,125845.800,A,6228.3262,N,00614.0687,E,0.26,165.87,270416,,,A*67

$GPGGA,125846.000,6228.3261,N,00614.0687,E,1,08,0.94,28.7,M,43.3,M,,*5E
$GPRMC,125846.000,A,6228.3261,N,00614.0687,E,0.26,167.59,270416,,,A*6E

$GPGGA,125846.200,6228.3261,N,00614.0687,E,1,08,0.94,28.7,M,43.3,M,,*5C
$GPRMC,125846.200,A,6228.3261,N,00614.0687,E,0.26,169.10,270416,,,A*6F

$GPGGA,125846.400,6228.3261,N,00614.0687,E,1,08,0.94,28.7,M,43.3,M,,*5A
$GPRMC,125846.400,A,6228.3261,N,00614.0687,E,0.27,170.47,270416,,,A*62

$GPGGA,125846.600,6228.3261,N,00614.0687,E,1,08,0.94,28.7,M,43.3,M,,*58
$GPRMC,125846.600,A,6228.3261,N,00614.0687,E,0.26,173.76,270416,,,A*60

$GPGGA,125846.800,6228.3261,N,00614.0687,E,1,08,0.94,28.7,M,43.3,M,,*56
$GPRMC,125846.800,A,6228.3261,N,00614.0687,E,0.28,174.67,270416,,,A*67

$GPGGA,125847.000,6228.3261,N,00614.0687,E,1,08,0.94,28.7,M,43.3,M,,*5F
$GPRMC,125847.000,A,6228.3261,N,00614.0687,E,0.30,176.59,270416,,,A*68

$GPGGA,125847.200,6228.3260,N,00614.0687,E,1,08,0.94,28.7,M,43.3,M,,*5C
$GPRMC,125847.200,A,6228.3260,N,00614.0687,E,0.32,179.86,270416,,,A*64

$GPGGA,125847.400,6228.3260,N,00614.0687,E,1,08,0.94,28.7,M,43.3,M,,*5A
$GPRMC,125847.400,A,6228.3260,N,00614.0687,E,0.33,180.79,270416,,,A*65

$GPGGA,125847.600,6228.3260,N,00614.0687,E,1,08,0.94,28.7,M,43.3,M,,*58
$GPRMC,125847.600,A,6228.3260,N,00614.0687,E,0.35,180.52,270416,,,A*68

$GPGGA,125847.800,6228.3260,N,00614.0687,E,1,08,0.94,28.7,M,43.3,M,,*56
$GPRMC,125847.800,A,6228.3260,N,00614.0687,E,0.38,180.89,270416,,,A*6D

$GPGGA,125848.000,6228.3260,N,00614.0687,E,1,08,0.94,28.7,M,43.3,M,,*51
$GPRMC,125848.000,A,6228.3260,N,00614.0687,E,0.41,181.57,270416,,,A*66

$GPGGA,125848.200,6228.3259,N,00614.0687,E,1,08,0.94,28.7,M,43.3,M,,*59
$GPRMC,125848.200,A,6228.3259,N,00614.0687,E,0.43,181.55,270416,,,A*6E

$GPGGA,125848.400,6228.3259,N,00614.0687,E,1,08,0.94,28.7,M,43.3,M,,*5F
$GPRMC,125848.400,A,6228.3259,N,00614.0687,E,0.47,180.22,270416,,,A*6D

$GPGGA,125848.600,6228.3259,N,00614.0687,E,1,08,0.94,28.7,M,43.3,M,,*5D
$GPRMC,125848.600,A,6228.3259,N,00614.0687,E,0.50,177.36,270416,,,A*64

$GPGGA,125848.800,6228.3259,N,00614.0687,E,1,08,0.94,28.7,M,43.3,M,,*53
$GPRMC,125848.800,A,6228.3259,N,00614.0687,E,0.53,176.79,270416,,,A*63

$GPGGA,125849.000,6228.3258,N,00614.0687,E,1,08,0.94,28.7,M,43.3,M,,*5B
$GPRMC,125849.000,A,6228.3258,N,00614.0687,E,0.56,176.62,270416,,,A*64

$GPGGA,125849.200,6228.3258,N,00614.0687,E,1,08,0.94,28.7,M,43.3,M,,*59
$GPRMC,125849.200,A,6228.3258,N,00614.0687,E,0.58,177.15,270416,,,A*69

$GPGGA,125849.400,6228.3258,N,00614.0687,E,1,08,0.94,28.7,M,43.3,M,,*5F
$GPRMC,125849.400,A,6228.3258,N,00614.0687,E,0.59,177.73,270416,,,A*6E

$GPGGA,125849.600,6228.3257,N,00614.0687,E,1,08,0.94,28.7,M,43.3,M,,*52
$GPRMC,125849.600,A,6228.3257,N,00614.0687,E,0.60,175.79,270416,,,A*61

$GPGGA,125849.800,6228.3256,N,00614.0688,E,1,08,0.94,28.7,M,43.3,M,,*52
$GPRMC,125849.800,A,6228.3256,N,00614.0688,E,0.62,174.16,270416,,,A*6B

$GPGGA,125850.000,6228.3256,N,00614.0688,E,1,08,0.94,28.7,M,43.3,M,,*52
$GPRMC,125850.000,A,6228.3256,N,00614.0688,E,0.63,173.27,270416,,,A*6F

$GPGGA,125850.200,6228.3255,N,00614.0688,E,1,08,0.94,28.7,M,43.3,M,,*53
$GPRMC,125850.200,A,6228.3255,N,00614.0688,E,0.63,172.44,270416,,,A*6A

$GPGGA,125850.400,6228.3255,N,00614.0688,E,1,08,0.94,28.7,M,43.3,M,,*55
$GPRMC,125850.400,A,6228.3255,N,00614.0688,E,0.63,171.51,270416,,,A*6B

$GPGGA,125850.600,6228.3254,N,00614.0688,E,1,08,0.94,28.7,M,43.3,M,,*56
$GPRMC,125850.600,A,6228.3254,N,00614.0688,E,0.62,170.46,270416,,,A*6E

$GPGGA,125850.800,6228.3254,N,00614.0687,E,1,08,0.94,28.7,M,43.3,M,,*57
$GPRMC,125850.800,A,6228.3254,N,00614.0687,E,0.63,171.21,270416,,,A*6E

$GPGGA,125851.000,6228.3253,N,00614.0687,E,1,08,0.94,28.7,M,43.3,M,,*59
$GPRMC,125851.000,A,6228.3253,N,00614.0687,E,0.64,171.40,270416,,,A*60

$GPGGA,125851.200,6228.3252,N,00614.0686,E,1,08,0.94,28.7,M,43.3,M,,*5B
$GPRMC,125851.200,A,6228.3252,N,00614.0686,E,0.64,170.89,270416,,,A*66

$GPGGA,125851.400,6228.3252,N,00614.0685,E,1,08,0.94,28.7,M,43.3,M,,*5E
$GPRMC,125851.400,A,6228.3252,N,00614.0685,E,0.64,171.41,270416,,,A*66

$GPGGA,125851.600,6228.3251,N,00614.0685,E,1,08,0.94,28.7,M,43.3,M,,*5F
$GPRMC,125851.600,A,6228.3251,N,00614.0685,E,0.64,170.24,270416,,,A*65

$GPGGA,125851.800,6228.3251,N,00614.0685,E,1,08,0.94,28.7,M,43.3,M,,*51
$GPRMC,125851.800,A,6228.3251,N,00614.0685,E,0.64,170.59,270416,,,A*61

$GPGGA,125852.000,6228.3250,N,00614.0684,E,1,08,0.94,28.6,M,43.3,M,,*5B
$GPRMC,125852.000,A,6228.3250,N,00614.0684,E,0.64,170.61,270416,,,A*61

$GPGGA,125852.200,6228.3250,N,00614.0683,E,1,08,0.94,28.6,M,43.3,M,,*5E
$GPRMC,125852.200,A,6228.3250,N,00614.0683,E,0.64,171.16,270416,,,A*65

$GPGGA,125852.400,6228.3250,N,00614.0682,E,1,08,0.94,28.6,M,43.3,M,,*59
$GPRMC,125852.400,A,6228.3250,N,00614.0682,E,0.64,172.35,270416,,,A*60

$GPGGA,125852.600,6228.3249,N,00614.0681,E,1,08,0.94,28.6,M,43.3,M,,*50
$GPRMC,125852.600,A,6228.3249,N,00614.0681,E,0.65,174.05,270416,,,A*6D

$GPGGA,125852.800,6228.3248,N,00614.0679,E,1,08,0.94,28.6,M,43.3,M,,*58
$GPRMC,125852.800,A,6228.3248,N,00614.0679,E,0.65,175.22,270416,,,A*61

$GPGGA,125853.000,6228.3248,N,00614.0678,E,1,08,0.94,28.6,M,43.3,M,,*50
$GPRMC,125853.000,A,6228.3248,N,00614.0678,E,0.65,175.81,270416,,,A*60

$GPGGA,125853.200,6228.3247,N,00614.0677,E,1,08,0.94,28.6,M,43.3,M,,*52
$GPRMC,125853.200,A,6228.3247,N,00614.0677,E,0.65,176.94,270416,,,A*65

$GPGGA,125853.400,6228.3247,N,00614.0676,E,1,08,0.94,28.6,M,43.3,M,,*55
$GPRMC,125853.400,A,6228.3247,N,00614.0676,E,0.65,177.68,270416,,,A*60

$GPGGA,125853.600,6228.3246,N,00614.0675,E,1,08,0.94,28.6,M,43.3,M,,*55
$GPRMC,125853.600,A,6228.3246,N,00614.0675,E,0.64,178.54,270416,,,A*61

$GPGGA,125853.800,6228.3246,N,00614.0673,E,1,08,0.94,28.6,M,43.3,M,,*5D
$GPRMC,125853.800,A,6228.3246,N,00614.0673,E,0.66,179.98,270416,,,A*6A

$GPGGA,125854.000,6228.3245,N,00614.0672,E,1,08,0.94,28.6,M,43.3,M,,*50
$GPRMC,125854.000,A,6228.3245,N,00614.0672,E,0.66,181.41,270416,,,A*64

$GPGGA,125854.200,6228.3245,N,00614.0671,E,1,08,0.94,28.6,M,43.3,M,,*51
$GPRMC,125854.200,A,6228.3245,N,00614.0671,E,0.65,183.08,270416,,,A*69

$GPGGA,125854.400,6228.3244,N,00614.0669,E,1,08,0.94,28.6,M,43.3,M,,*5F
$GPRMC,125854.400,A,6228.3244,N,00614.0669,E,0.65,184.91,270416,,,A*60

$GPGGA,125854.600,6228.3244,N,00614.0669,E,1,08,0.94,28.6,M,43.3,M,,*5D
$GPRMC,125854.600,A,6228.3244,N,00614.0669,E,0.64,185.24,270416,,,A*6C

$GPGGA,125854.800,6228.3244,N,00614.0668,E,1,08,0.94,28.6,M,43.3,M,,*52
$GPRMC,125854.800,A,6228.3244,N,00614.0668,E,0.64,185.52,270416,,,A*62

$GPGGA,125855.000,6228.3244,N,00614.0667,E,1,08,0.94,28.6,M,43.3,M,,*54
$GPRMC,125855.000,A,6228.3244,N,00614.0667,E,0.62,185.45,270416,,,A*64

$GPGGA,125855.200,6228.3244,N,00614.0668,E,1,08,0.94,28.6,M,43.3,M,,*59
$GPRMC,125855.200,A,6228.3244,N,00614.0668,E,0.60,184.22,270416,,,A*6B

$GPGGA,125855.400,6228.3245,N,00614.0668,E,1,08,0.94,28.6,M,43.3,M,,*5E
$GPRMC,125855.400,A,6228.3245,N,00614.0668,E,0.58,182.51,270416,,,A*65

$GPGGA,125855.600,6228.3245,N,00614.0668,E,1,08,0.94,28.6,M,43.3,M,,*5C
$GPRMC,125855.600,A,6228.3245,N,00614.0668,E,0.56,179.37,270416,,,A*6D

$GPGGA,125855.800,6228.3245,N,00614.0667,E,1,08,0.94,28.6,M,43.3,M,,*5D
$GPRMC,125855.800,A,6228.3245,N,00614.0667,E,0.55,178.73,270416,,,A*6E

$GPGGA,125856.000,6228.3245,N,00614.0667,E,1,08,0.94,28.6,M,43.3,M,,*56
$GPRMC,125856.000,A,6228.3245,N,00614.0667,E,0.54,177.72,270416,,,A*6A

$GPGGA,125856.200,6228.3245,N,00614.0667,E,1,08,0.94,28.6,M,43.3,M,,*54
$GPRMC,125856.200,A,6228.3245,N,00614.0667,E,0.52,175.76,270416,,,A*68

$GPGGA,125856.400,6228.3246,N,00614.0668,E,1,08,0.94,28.6,M,43.3,M,,*5E
$GPRMC,125856.400,A,6228.3246,N,00614.0668,E,0.49,173.39,270416,,,A*65

$GPGGA,125856.600,6228.3246,N,00614.0668,E,1,08,0.94,28.6,M,43.3,M,,*5C
$GPRMC,125856.600,A,6228.3246,N,00614.0668,E,0.47,170.14,270416,,,A*65

$GPGGA,125856.800,6228.3246,N,00614.0668,E,1,08,0.94,28.6,M,43.3,M,,*52
$GPRMC,125856.800,A,6228.3246,N,00614.0668,E,0.46,170.00,270416,,,A*6F

$GPGGA,125857.000,6228.3246,N,00614.0668,E,1,08,0.94,28.6,M,43.3,M,,*5B
$GPRMC,125857.000,A,6228.3246,N,00614.0668,E,0.45,169.98,270416,,,A*6C

$GPGGA,125857.200,6228.3246,N,00614.0668,E,1,08,0.94,28.6,M,43.3,M,,*59
$GPRMC,125857.200,A,6228.3246,N,00614.0668,E,0.44,169.39,270416,,,A*64

$GPGGA,125857.400,6228.3247,N,00614.0667,E,1,08,0.94,28.6,M,43.3,M,,*51
$GPRMC,125857.400,A,6228.3247,N,00614.0667,E,0.42,170.16,270416,,,A*6F

$GPGGA,125857.600,6228.3247,N,00614.0666,E,1,08,0.94,28.6,M,43.3,M,,*52
$GPRMC,125857.600,A,6228.3247,N,00614.0666,E,0.40,172.48,270416,,,A*67

$GPGGA,125857.800,6228.3247,N,00614.0666,E,1,08,0.94,28.5,M,43.3,M,,*5F
$GPRMC,125857.800,A,6228.3247,N,00614.0666,E,0.39,173.51,270416,,,A*6E

$GPGGA,125858.000,6228.3246,N,00614.0665,E,1,08,0.94,28.5,M,43.3,M,,*5A
$GPRMC,125858.000,A,6228.3246,N,00614.0665,E,0.39,173.87,270416,,,A*60

$GPGGA,125858.200,6228.3246,N,00614.0664,E,1,08,0.94,28.5,M,43.3,M,,*59
$GPRMC,125858.200,A,6228.3246,N,00614.0664,E,0.40,175.24,270416,,,A*62

$GPGGA,125858.400,6228.3245,N,00614.0663,E,1,08,0.94,28.5,M,43.3,M,,*5B
$GPRMC,125858.400,A,6228.3245,N,00614.0663,E,0.41,176.35,270416,,,A*62

$GPGGA,125858.600,6228.3244,N,00614.0663,E,1,08,0.94,28.5,M,43.3,M,,*58
$GPRMC,125858.600,A,6228.3244,N,00614.0663,E,0.42,176.97,270416,,,A*6A

$GPGGA,125858.800,6228.3243,N,00614.0662,E,1,08,0.94,28.6,M,43.3,M,,*53
$GPRMC,125858.800,A,6228.3243,N,00614.0662,E,0.45,179.05,270416,,,A*61

$GPGGA,125859.000,6228.3243,N,00614.0662,E,1,08,0.94,28.6,M,43.3,M,,*5A
$GPRMC,125859.000,A,6228.3243,N,00614.0662,E,0.46,180.06,270416,,,A*6E

$GPGGA,125859.200,6228.3242,N,00614.0662,E,1,08,0.94,28.6,M,43.3,M,,*59
$GPRMC,125859.200,A,6228.3242,N,00614.0662,E,0.47,180.40,270416,,,A*6E

$GPGGA,125859.400,6228.3242,N,00614.0662,E,1,08,0.94,28.6,M,43.3,M,,*5F
$GPRMC,125859.400,A,6228.3242,N,00614.0662,E,0.49,179.74,270416,,,A*67

$GPGGA,125859.600,6228.3242,N,00614.0662,E,1,08,0.94,28.6,M,43.3,M,,*5D
$GPRMC,125859.600,A,6228.3242,N,00614.0662,E,0.50,178.47,270416,,,A*6C

$GPGGA,125859.800,6228.3242,N,00614.0662,E,1,08,0.94,28.6,M,43.3,M,,*53
$GPRMC,125859.800,A,6228.3242,N,00614.0662,E,0.50,178.76,270416,,,A*60

$GPGGA,125900.000,6228.3241,N,00614.0662,E,1,08,0.94,28.6,M,43.3,M,,*55
$GPRMC,125900.000,A,6228.3241,N,00614.0662,E,0.50,179.17,270416,,,A*60

$GPGGA,125900.200,6228.3241,N,00614.0662,E,1,08,0.94,28.6,M,43.3,M,,*57
$GPRMC,125900.200,A,6228.3241,N,00614.0662,E,0.52,180.36,270416,,,A*65

$GPGGA,125900.400,6228.3241,N,00614.0662,E,1,08,0.94,28.6,M,43.3,M,,*51
$GPRMC,125900.400,A,6228.3241,N,00614.0662,E,0.51,181.11,270416,,,A*64

$GPGGA,125900.600,6228.3240,N,00614.0662,E,1,08,0.94,28.6,M,43.3,M,,*52
$GPRMC,125900.600,A,6228.3240,N,00614.0662,E,0.52,180.62,270416,,,A*61

$GPGGA,125900.800,6228.3240,N,00614.0662,E,1,08,0.94,28.6,M,43.3,M,,*5C
$GPRMC,125900.800,A,6228.3240,N,00614.0662,E,0.53,181.21,270416,,,A*68

$GPGGA,125901.000,6228.3240,N,00614.0662,E,1,08,0.94,28.6,M,43.3,M,,*55
$GPRMC,125901.000,A,6228.3240,N,00614.0662,E,0.53,182.47,270416,,,A*62

$GPGGA,125901.200,6228.3240,N,00614.0662,E,1,08,0.94,28.6,M,43.3,M,,*57
$GPRMC,125901.200,A,6228.3240,N,00614.0662,E,0.53,183.32,270416,,,A*63

$GPGGA,125901.400,6228.3239,N,00614.0662,E,1,08,0.94,28.6,M,43.3,M,,*5F
$GPRMC,125901.400,A,6228.3239,N,00614.0662,E,0.53,184.28,270416,,,A*67

$GPGGA,125901.600,6228.3239,N,00614.0662,E,1,08,0.94,28.6,M,43.3,M,,*5D
$GPRMC,125901.600,A,6228.3239,N,00614.0662,E,0.53,185.25,270416,,,A*69

$GPGGA,125901.800,6228.3239,N,00614.0662,E,1,08,0.94,28.6,M,43.3,M,,*53
$GPRMC,125901.800,A,6228.3239,N,00614.0662,E,0.52,186.13,270416,,,A*60

$GPGGA,125902.000,6228.3238,N,00614.0662,E,1,08,0.94,28.6,M,43.3,M,,*59
$GPRMC,125902.000,A,6228.3238,N,00614.0662,E,0.52,186.53,270416,,,A*6E

$GPGGA,125902.200,6228.3238,N,00614.0662,E,1,08,0.94,28.6,M,43.3,M,,*5B
$GPRMC,125902.200,A,6228.3238,N,00614.0662,E,0.52,187.25,270416,,,A*6C

$GPGGA,125902.400,6228.3238,N,00614.0662,E,1,08,0.94,28.6,M,43.3,M,,*5D
$GPRMC,125902.400,A,6228.3238,N,00614.0662,E,0.52,188.35,270416,,,A*64

$GPGGA,125902.600,6228.3238,N,00614.0661,E,1,08,0.94,28.6,M,43.3,M,,*5C
$GPRMC,125902.600,A,6228.3238,N,00614.0661,E,0.52,189.36,270416,,,A*67

$GPGGA,125902.800,6228.3237,N,00614.0661,E,1,08,0.94,28.6,M,43.3,M,,*5D
$GPRMC,125902.800,A,6228.3237,N,00614.0661,E,0.52,189.82,270416,,,A*69

$GPGGA,125903.000,6228.3237,N,00614.0661,E,1,08,0.94,28.6,M,43.3,M,,*54
$GPRMC,125903.000,A,6228.3237,N,00614.0661,E,0.53,192.04,270416,,,A*65

$GPGGA,125903.200,6228.3237,N,00614.0661,E,1,08,0.94,28.6,M,43.3,M,,*56
$GPRMC,125903.200,A,6228.3237,N,00614.0661,E,0.54,192.98,270416,,,A*65

$GPGGA,125903.400,6228.3236,N,00614.0661,E,1,08,0.94,28.6,M,43.3,M,,*51
$GPRMC,125903.400,A,6228.3236,N,00614.0661,E,0.53,193.99,270416,,,A*65

$GPGGA,125903.600,6228.3236,N,00614.0661,E,1,08,0.94,28.6,M,43.3,M,,*53
$GPRMC,125903.600,A,6228.3236,N,00614.0661,E,0.53,194.94,270416,,,A*6D

$GPGGA,125903.800,6228.3236,N,00614.0661,E,1,08,0.94,28.6,M,43.3,M,,*5D
$GPRMC,125903.800,A,6228.3236,N,00614.0661,E,0.52,195.50,270416,,,A*6B

$GPGGA,125904.000,6228.3236,N,00614.0660,E,1,08,0.94,28.6,M,43.3,M,,*53
$GPRMC,125904.000,A,6228.3236,N,00614.0660,E,0.52,195.92,270416,,,A*6B

$GPGGA,125904.200,6228.3235,N,00614.0660,E,1,08,0.94,28.6,M,43.3,M,,*52
$GPRMC,125904.200,A,6228.3235,N,00614.0660,E,0.52,196.24,270416,,,A*64

$GPGGA,125904.400,6228.3235,N,00614.0660,E,1,08,0.94,28.6,M,43.3,M,,*54
$GPRMC,125904.400,A,6228.3235,N,00614.0660,E,0.52,196.83,270416,,,A*6F

$GPGGA,125904.600,6228.3235,N,00614.0660,E,1,08,0.94,28.6,M,43.3,M,,*56
$GPRMC,125904.600,A,6228.3235,N,00614.0660,E,0.52,197.75,270416,,,A*65

$GPGGA,125904.800,6228.3234,N,00614.0660,E,1,08,0.94,28.6,M,43.3,M,,*59
$GPRMC,125904.800,A,6228.3234,N,00614.0660,E,0.52,199.17,270416,,,A*60

$GPGGA,125905.000,6228.3234,N,00614.0659,E,1,08,0.94,28.6,M,43.3,M,,*5A
$GPRMC,125905.000,A,6228.3234,N,00614.0659,E,0.53,199.90,270416,,,A*6D

$GPGGA,125905.200,6228.3234,N,00614.0659,E,1,08,0.94,28.6,M,43.3,M,,*58
$GPRMC,125905.200,A,6228.3234,N,00614.0659,E,0.52,199.12,270416,,,A*64

$GPGGA,125905.400,6228.3234,N,00614.0659,E,1,08,0.94,28.6,M,43.3,M,,*5E
$GPRMC,125905.400,A,6228.3234,N,00614.0659,E,0.50,198.91,270416,,,A*6A

$GPGGA,125905.600,6228.3233,N,00614.0659,E,1,08,0.94,28.6,M,43.3,M,,*5B
$GPRMC,125905.600,A,6228.3233,N,00614.0659,E,0.48,198.89,270416,,,A*6F

$GPGGA,125905.800,6228.3233,N,00614.0658,E,1,08,0.94,28.6,M,43.3,M,,*54
$GPRMC,125905.800,A,6228.3233,N,00614.0658,E,0.48,199.46,270416,,,A*62

$GPGGA,125906.000,6228.3233,N,00614.0658,E,1,08,0.94,28.6,M,43.3,M,,*5F
$GPRMC,125906.000,A,6228.3233,N,00614.0658,E,0.47,199.55,270416,,,A*64

$GPGGA,125906.200,6228.3233,N,00614.0658,E,1,08,0.94,28.6,M,43.3,M,,*5D
$GPRMC,125906.200,A,6228.3233,N,00614.0658,E,0.48,199.15,270416,,,A*6D

$GPGGA,125906.400,6228.3232,N,00614.0658,E,1,08,0.94,28.6,M,43.3,M,,*5A
$GPRMC,125906.400,A,6228.3232,N,00614.0658,E,0.49,198.27,270416,,,A*6B

$GPGGA,125906.600,6228.3232,N,00614.0658,E,1,08,0.94,28.6,M,43.3,M,,*58
$GPRMC,125906.600,A,6228.3232,N,00614.0658,E,0.48,196.97,270416,,,A*6D

$GPGGA,125906.800,6228.3232,N,00614.0657,E,1,08,0.94,28.6,M,43.3,M,,*59
$GPRMC,125906.800,A,6228.3232,N,00614.0657,E,0.48,198.13,270416,,,A*6E

$GPGGA,125907.000,6228.3232,N,00614.0657,E,1,08,0.94,28.6,M,43.3,M,,*50
$GPRMC,125907.000,A,6228.3232,N,00614.0657,E,0.47,199.31,270416,,,A*69

$GPGGA,125907.200,6228.3231,N,00614.0657,E,1,08,0.94,28.6,M,43.3,M,,*51
$GPRMC,125907.200,A,6228.3231,N,00614.0657,E,0.47,200.48,270416,,,A*65

$GPGGA,125907.400,6228.3231,N,00614.0657,E,1,08,0.94,28.6,M,43.3,M,,*57
$GPRMC,125907.400,A,6228.3231,N,00614.0657,E,0.48,200.73,270416,,,A*64

$GPGGA,125907.600,6228.3231,N,00614.0657,E,1,08,0.94,28.6,M,43.3,M,,*55
$GPRMC,125907.600,A,6228.3231,N,00614.0657,E,0.48,200.75,270416,,,A*60

$GPGGA,125907.800,6228.3231,N,00614.0656,E,1,08,0.94,28.6,M,43.3,M,,*5A
$GPRMC,125907.800,A,6228.3231,N,00614.0656,E,0.50,200.73,270416,,,A*60

$GPGGA,125908.000,6228.3230,N,00614.0656,E,1,08,0.94,28.6,M,43.3,M,,*5C
$GPRMC,125908.000,A,6228.3230,N,00614.0656,E,0.52,201.56,270416,,,A*62

$GPGGA,125908.200,6228.3230,N,00614.0656,E,1,08,0.94,28.6,M,43.3,M,,*5E
$GPRMC,125908.200,A,6228.3230,N,00614.0656,E,0.54,202.56,270416,,,A*65

$GPGGA,125908.400,6228.3230,N,00614.0656,E,1,08,0.94,28.6,M,43.3,M,,*58
$GPRMC,125908.400,A,6228.3230,N,00614.0656,E,0.55,202.57,270416,,,A*63

$GPGGA,125908.600,6228.3229,N,00614.0655,E,1,08,0.94,28.6,M,43.3,M,,*51
$GPRMC,125908.600,A,6228.3229,N,00614.0655,E,0.55,201.90,270416,,,A*62

$GPGGA,125908.800,6228.3229,N,00614.0655,E,1,08,0.94,28.6,M,43.3,M,,*5F
$GPRMC,125908.800,A,6228.3229,N,00614.0655,E,0.57,202.19,270416,,,A*6C

$GPGGA,125909.000,6228.3229,N,00614.0655,E,1,08,0.94,28.6,M,43.3,M,,*56
$GPRMC,125909.000,A,6228.3229,N,00614.0655,E,0.57,202.70,270416,,,A*6A

$GPGGA,125909.200,6228.3229,N,00614.0654,E,1,08,0.94,28.6,M,43.3,M,,*55
$GPRMC,125909.200,A,6228.3229,N,00614.0654,E,0.56,204.17,270416,,,A*6F

$GPGGA,125909.400,6228.3228,N,00614.0654,E,1,08,0.94,28.6,M,43.3,M,,*52
$GPRMC,125909.400,A,6228.3228,N,00614.0654,E,0.55,206.05,270416,,,A*6A

$GPGGA,125909.600,6228.3228,N,00614.0654,E,1,08,0.94,28.6,M,43.3,M,,*50
$GPRMC,125909.600,A,6228.3228,N,00614.0654,E,0.55,206.17,270416,,,A*6B

$GPGGA,125909.800,6228.3228,N,00614.0654,E,1,08,0.94,28.6,M,43.3,M,,*5E
$GPRMC,125909.800,A,6228.3228,N,00614.0654,E,0.54,206.63,270416,,,A*67

$GPGGA,125910.000,6228.3227,N,00614.0653,E,1,08,0.94,28.6,M,43.3,M,,*56
$GPRMC,125910.000,A,6228.3227,N,00614.0653,E,0.53,207.19,270416,,,A*64

$GPGGA,125910.200,6228.3227,N,00614.0653,E,1,08,0.94,28.6,M,43.3,M,,*54
$GPRMC,125910.200,A,6228.3227,N,00614.0653,E,0.52,207.24,270416,,,A*69

$GPGGA,125910.400,6228.3227,N,00614.0653,E,1,08,0.94,28.6,M,43.3,M,,*52
$GPRMC,125910.400,A,6228.3227,N,00614.0653,E,0.49,206.45,270416,,,A*63

$GPGGA,125910.600,6228.3227,N,00614.0652,E,1,08,0.94,28.6,M,43.3,M,,*51
$GPRMC,125910.600,A,6228.3227,N,00614.0652,E,0.46,204.82,270416,,,A*66

$GPGGA,125910.800,6228.3227,N,00614.0652,E,1,08,0.94,28.6,M,43.3,M,,*5F
$GPRMC,125910.800,A,6228.3227,N,00614.0652,E,0.45,203.54,270416,,,A*67

$GPGGA,125911.000,6228.3226,N,00614.0652,E,1,08,0.94,28.6,M,43.3,M,,*57
$GPRMC,125911.000,A,6228.3226,N,00614.0652,E,0.46,202.48,270416,,,A*60

$GPGGA,125911.200,6228.3226,N,00614.0652,E,1,08,0.94,28.6,M,43.3,M,,*55
$GPRMC,125911.200,A,6228.3226,N,00614.0652,E,0.46,202.06,270416,,,A*68

$GPGGA,125911.400,6228.3226,N,00614.0652,E,1,08,0.94,28.6,M,43.3,M,,*53
$GPRMC,125911.400,A,6228.3226,N,00614.0652,E,0.46,201.32,270416,,,A*6A

$GPGGA,125911.600,6228.3226,N,00614.0651,E,1,08,0.94,28.6,M,43.3,M,,*52
$GPRMC,125911.600,A,6228.3226,N,00614.0651,E,0.47,200.25,270416,,,A*6D

$GPGGA,125911.800,6228.3225,N,00614.0651,E,1,08,0.94,28.6,M,43.3,M,,*5F
$GPRMC,125911.800,A,6228.3225,N,00614.0651,E,0.47,200.73,270416,,,A*63

$GPGGA,125912.000,6228.3225,N,00614.0651,E,1,08,0.94,28.6,M,43.3,M,,*54
$GPRMC,125912.000,A,6228.3225,N,00614.0651,E,0.47,201.36,270416,,,A*68

$GPGGA,125912.200,6228.3225,N,00614.0651,E,1,08,0.94,28.6,M,43.3,M,,*56
$GPRMC,125912.200,A,6228.3225,N,00614.0651,E,0.46,201.83,270416,,,A*65

$GPGGA,125912.400,6228.3225,N,00614.0650,E,1,08,0.94,28.6,M,43.3,M,,*51
$GPRMC,125912.400,A,6228.3225,N,00614.0650,E,0.46,202.05,270416,,,A*6F

$GPGGA,125912.600,6228.3224,N,00614.0650,E,1,08,0.94,28.6,M,43.3,M,,*52
$GPRMC,125912.600,A,6228.3224,N,00614.0650,E,0.47,202.92,270416,,,A*63

$GPGGA,125912.800,6228.3224,N,00614.0650,E,1,08,0.94,28.6,M,43.3,M,,*5C
$GPRMC,125912.800,A,6228.3224,N,00614.0650,E,0.47,204.36,270416,,,A*65

$GPGGA,125913.000,6228.3224,N,00614.0650,E,1,08,0.94,28.6,M,43.3,M,,*55
$GPRMC,125913.000,A,6228.3224,N,00614.0650,E,0.47,205.45,270416,,,A*69

$GPGGA,125913.200,6228.3224,N,00614.0650,E,1,08,0.94,28.6,M,43.3,M,,*57
$GPRMC,125913.200,A,6228.3224,N,00614.0650,E,0.46,207.25,270416,,,A*6E

$GPGGA,125913.400,6228.3223,N,00614.0649,E,1,08,0.94,28.6,M,43.3,M,,*5E
$GPRMC,125913.400,A,6228.3223,N,00614.0649,E,0.46,208.85,270416,,,A*62

$GPGGA,125913.600,6228.3223,N,00614.0649,E,1,08,0.94,28.6,M,43.3,M,,*5C
$GPRMC,125913.600,A,6228.3223,N,00614.0649,E,0.44,209.69,270416,,,A*61

$GPGGA,125913.800,6228.3223,N,00614.0649,E,1,08,0.94,28.6,M,43.3,M,,*52
$GPRMC,125913.800,A,6228.3223,N,00614.0649,E,0.44,210.15,270416,,,A*6C

$GPGGA,125914.000,6228.3223,N,00614.0648,E,1,08,0.94,28.6,M,43.3,M,,*5C
$GPRMC,125914.000,A,6228.3223,N,00614.0648,E,0.44,209.75,270416,,,A*6C

$GPGGA,125914.200,6228.3223,N,00614.0648,E,1,08,0.94,28.6,M,43.3,M,,*5E
$GPRMC,125914.200,A,6228.3223,N,00614.0648,E,0.44,208.87,270416,,,A*62

$GPGGA,125914.400,6228.3222,N,00614.0648,E,1,08,0.94,28.6,M,43.3,M,,*59
$GPRMC,125914.400,A,6228.3222,N,00614.0648,E,0.45,207.44,270416,,,A*64

$GPGGA,125914.600,6228.3222,N,00614.0648,E,1,08,0.94,28.6,M,43.3,M,,*5B
$GPRMC,125914.600,A,6228.3222,N,00614.0648,E,0.46,206.11,270416,,,A*64

$GPGGA,125914.800,6228.3222,N,00614.0647,E,1,08,0.94,28.6,M,43.3,M,,*5A
$GPRMC,125914.800,A,6228.3222,N,00614.0647,E,0.47,206.26,270416,,,A*60

$GPGGA,125915.000,6228.3222,N,00614.0647,E,1,08,0.94,28.6,M,43.3,M,,*53
$GPRMC,125915.000,A,6228.3222,N,00614.0647,E,0.46,206.11,270416,,,A*6C

$GPGGA,125915.200,6228.3221,N,00614.0647,E,1,08,0.94,28.6,M,43.3,M,,*52
$GPRMC,125915.200,A,6228.3221,N,00614.0647,E,0.46,206.13,270416,,,A*6F

$GPGGA,125915.400,6228.3221,N,00614.0647,E,1,08,0.94,28.6,M,43.3,M,,*54
$GPRMC,125915.400,A,6228.3221,N,00614.0647,E,0.46,206.00,270416,,,A*6B

$GPGGA,125915.600,6228.3221,N,00614.0646,E,1,08,0.94,28.6,M,43.3,M,,*57
$GPRMC,125915.600,A,6228.3221,N,00614.0646,E,0.46,205.95,270416,,,A*67

$GPGGA,125915.800,6228.3221,N,00614.0646,E,1,08,0.94,28.6,M,43.3,M,,*59
$GPRMC,125915.800,A,6228.3221,N,00614.0646,E,0.46,206.28,270416,,,A*6C

$GPGGA,125916.000,6228.3221,N,00614.0646,E,1,08,0.94,28.6,M,43.3,M,,*52
$GPRMC,125916.000,A,6228.3221,N,00614.0646,E,0.45,206.52,270416,,,A*69

$GPGGA,125916.200,6228.3220,N,00614.0646,E,1,08,0.94,28.6,M,43.3,M,,*51
$GPRMC,125916.200,A,6228.3220,N,00614.0646,E,0.44,206.02,270416,,,A*6E

$GPGGA,125916.400,6228.3220,N,00614.0645,E,1,08,0.94,28.6,M,43.3,M,,*54
$GPRMC,125916.400,A,6228.3220,N,00614.0645,E,0.43,206.36,270416,,,A*6B

$GPGGA,125916.600,6228.3220,N,00614.0645,E,1,08,0.94,28.6,M,43.3,M,,*56
$GPRMC,125916.600,A,6228.3220,N,00614.0645,E,0.42,205.78,270416,,,A*61

$GPGGA,125916.800,6228.3220,N,00614.0645,E,1,08,0.94,28.6,M,43.3,M,,*58
$GPRMC,125916.800,A,6228.3220,N,00614.0645,E,0.42,204.99,270416,,,A*61

$GPGGA,125917.000,6228.3220,N,00614.0645,E,1,08,0.94,28.6,M,43.3,M,,*51
$GPRMC,125917.000,A,6228.3220,N,00614.0645,E,0.41,202.85,270416,,,A*60

$GPGGA,125917.200,6228.3219,N,00614.0644,E,1,08,0.94,28.6,M,43.3,M,,*58
$GPRMC,125917.200,A,6228.3219,N,00614.0644,E,0.39,202.28,270416,,,A*61

$GPGGA,125917.400,6228.3219,N,00614.0644,E,1,08,0.94,28.6,M,43.3,M,,*5E
$GPRMC,125917.400,A,6228.3219,N,00614.0644,E,0.37,201.83,270416,,,A*6B

$GPGGA,125917.600,6228.3219,N,00614.0644,E,1,08,0.94,28.6,M,43.3,M,,*5C
$GPRMC,125917.600,A,6228.3219,N,00614.0644,E,0.34,202.59,270416,,,A*6E

$GPGGA,125917.800,6228.3219,N,00614.0644,E,1,08,0.94,28.6,M,43.3,M,,*52
$GPRMC,125917.800,A,6228.3219,N,00614.0644,E,0.33,202.89,270416,,,A*6A

$GPGGA,125918.000,6228.3219,N,00614.0644,E,1,08,0.94,28.6,M,43.3,M,,*55
$GPRMC,125918.000,A,6228.3219,N,00614.0644,E,0.33,202.25,270416,,,A*6B

$GPGGA,125918.200,6228.3218,N,00614.0644,E,1,08,0.94,28.6,M,43.3,M,,*56
$GPRMC,125918.200,A,6228.3218,N,00614.0644,E,0.33,201.28,270416,,,A*66

$GPGGA,125918.400,6228.3218,N,00614.0643,E,1,08,0.94,28.6,M,43.3,M,,*57
$GPRMC,125918.400,A,6228.3218,N,00614.0643,E,0.33,200.37,270416,,,A*68

$GPGGA,125918.600,6228.3218,N,00614.0643,E,1,08,0.94,28.6,M,43.3,M,,*55
$GPRMC,125918.600,A,6228.3218,N,00614.0643,E,0.32,199.76,270416,,,A*6D

$GPGGA,125918.800,6228.3218,N,00614.0643,E,1,08,0.94,28.6,M,43.3,M,,*5B
$GPRMC,125918.800,A,6228.3218,N,00614.0643,E,0.32,199.66,270416,,,A*62

$GPGGA,125919.000,6228.3218,N,00614.0643,E,1,08,0.94,28.6,M,43.3,M,,*52
$GPRMC,125919.000,A,6228.3218,N,00614.0643,E,0.31,200.19,270416,,,A*63

$GPGGA,125919.200,6228.3218,N,00614.0643,E,1,08,0.94,28.6,M,43.3,M,,*50
$GPRMC,125919.200,A,6228.3218,N,00614.0643,E,0.30,201.30,270416,,,A*6A

$GPGGA,125919.400,6228.3218,N,00614.0643,E,1,08,0.94,28.6,M,43.3,M,,*56
$GPRMC,125919.400,A,6228.3218,N,00614.0643,E,0.28,201.93,270416,,,A*6C

$GPGGA,125919.600,6228.3217,N,00614.0643,E,1,08,0.94,28.6,M,43.3,M,,*5B
$GPRMC,125919.600,A,6228.3217,N,00614.0643,E,0.26,200.25,270416,,,A*63

$GPGGA,125919.800,6228.3217,N,00614.0643,E,1,08,0.94,28.6,M,43.3,M,,*55
$GPRMC,125919.800,A,6228.3217,N,00614.0643,E,0.25,200.09,270416,,,A*60

$GPGGA,125920.000,6228.3217,N,00614.0642,E,1,08,0.94,28.6,M,43.3,M,,*56
$GPRMC,125920.000,A,6228.3217,N,00614.0642,E,0.24,199.02,270416,,,A*6A

$GPGGA,125920.200,6228.3217,N,00614.0642,E,1,08,0.94,28.6,M,43.3,M,,*54
$GPRMC,125920.200,A,6228.3217,N,00614.0642,E,0.22,199.04,270416,,,A*68

$GPGGA,125920.400,6228.3217,N,00614.0642,E,1,08,0.94,28.6,M,43.3,M,,*52
$GPRMC,125920.400,A,6228.3217,N,00614.0642,E,0.21,197.27,270416,,,A*62

$GPGGA,125920.600,6228.3217,N,00614.0642,E,1,08,0.94,28.6,M,43.3,M,,*50
$GPRMC,125920.600,A,6228.3217,N,00614.0642,E,0.18,195.85,270416,,,A*60

$GPGGA,125920.800,6228.3217,N,00614.0642,E,1,08,0.94,28.6,M,43.3,M,,*5E
$GPRMC,125920.800,A,6228.3217,N,00614.0642,E,0.18,195.68,270416,,,A*6D

$GPGGA,125921.000,6228.3217,N,00614.0642,E,1,08,0.94,28.6,M,43.3,M,,*57
$GPRMC,125921.000,A,6228.3217,N,00614.0642,E,0.17,196.12,270416,,,A*65

$GPGGA,125921.200,6228.3217,N,00614.0642,E,1,08,0.94,28.6,M,43.3,M,,*55
$GPRMC,125921.200,A,6228.3217,N,00614.0642,E,0.17,196.14,270416,,,A*61

$GPGGA,125921.400,6228.3217,N,00614.0642,E,1,08,0.94,28.6,M,43.3,M,,*53
$GPRMC,125921.400,A,6228.3217,N,00614.0642,E,0.16,197.13,270416,,,A*60

$GPGGA,125921.600,6228.3216,N,00614.0642,E,1,08,0.94,28.6,M,43.3,M,,*50
$GPRMC,125921.600,A,6228.3216,N,00614.0642,E,0.16,198.19,270416,,,A*66

$GPGGA,125921.800,6228.3216,N,00614.0642,E,1,08,0.94,28.6,M,43.3,M,,*5E
$GPRMC,125921.800,A,6228.3216,N,00614.0642,E,0.16,199.70,270416,,,A*66

$GPGGA,125922.000,6228.3216,N,00614.0642,E,1,08,0.94,28.6,M,43.3,M,,*55
$GPRMC,125922.000,A,6228.3216,N,00614.0642,E,0.16,202.45,270416,,,A*6A

$GPGGA,125922.200,6228.3216,N,00614.0642,E,1,08,0.94,28.6,M,43.3,M,,*57
$GPRMC,125922.200,A,6228.3216,N,00614.0642,E,0.17,205.18,270416,,,A*66

$GPGGA,125922.400,6228.3216,N,00614.0641,E,1,08,0.94,28.6,M,43.3,M,,*52
$GPRMC,125922.400,A,6228.3216,N,00614.0641,E,0.17,208.42,270416,,,A*61

$GPGGA,125922.600,6228.3216,N,00614.0641,E,1,08,0.94,28.6,M,43.3,M,,*50
$GPRMC,125922.600,A,6228.3216,N,00614.0641,E,0.18,210.87,270416,,,A*6C

$GPGGA,125922.800,6228.3216,N,00614.0641,E,1,08,0.94,28.6,M,43.3,M,,*5E
$GPRMC,125922.800,A,6228.3216,N,00614.0641,E,0.18,214.39,270416,,,A*63

$GPGGA,125923.000,6228.3216,N,00614.0641,E,1,08,0.94,28.6,M,43.3,M,,*57
$GPRMC,125923.000,A,6228.3216,N,00614.0641,E,0.18,219.45,270416,,,A*6C

$GPGGA,125923.200,6228.3216,N,00614.0641,E,1,08,0.94,28.6,M,43.3,M,,*55
$GPRMC,125923.200,A,6228.3216,N,00614.0641,E,0.19,223.01,270416,,,A*66

$GPGGA,125923.400,6228.3216,N,00614.0641,E,1,08,0.94,28.6,M,43.3,M,,*53
$GPRMC,125923.400,A,6228.3216,N,00614.0641,E,0.19,228.20,270416,,,A*68

$GPGGA,125923.600,6228.3216,N,00614.0641,E,1,08,0.94,28.6,M,43.3,M,,*51
$GPRMC,125923.600,A,6228.3216,N,00614.0641,E,0.19,233.48,270416,,,A*6E

$GPGGA,125923.800,6228.3216,N,00614.0640,E,1,08,0.94,28.6,M,43.3,M,,*5E
$GPRMC,125923.800,A,6228.3216,N,00614.0640,E,0.20,238.11,270416,,,A*6C

$GPGGA,125924.000,6228.3216,N,00614.0640,E,1,08,0.94,28.6,M,43.3,M,,*51
$GPRMC,125924.000,A,6228.3216,N,00614.0640,E,0.22,242.92,270416,,,A*67

$GPGGA,125924.200,6228.3216,N,00614.0640,E,1,08,0.94,28.6,M,43.3,M,,*53
$GPRMC,125924.200,A,6228.3216,N,00614.0640,E,0.23,245.99,270416,,,A*68

$GPGGA,125924.400,6228.3216,N,00614.0640,E,1,08,0.94,28.6,M,43.3,M,,*55
$GPRMC,125924.400,A,6228.3216,N,00614.0640,E,0.25,250.44,270416,,,A*6C

$GPGGA,125924.600,6228.3216,N,00614.0639,E,1,08,0.94,28.6,M,43.3,M,,*59
$GPRMC,125924.600,A,6228.3216,N,00614.0639,E,0.26,253.83,270416,,,A*6B

$GPGGA,125924.800,6228.3215,N,00614.0639,E,1,08,0.94,28.6,M,43.3,M,,*54
$GPRMC,125924.800,A,6228.3215,N,00614.0639,E,0.26,254.62,270416,,,A*6E

$GPGGA,125925.000,6228.3215,N,00614.0639,E,1,08,0.94,28.6,M,43.3,M,,*5D
$GPRMC,125925.000,A,6228.3215,N,00614.0639,E,0.27,256.49,270416,,,A*6D

$GPGGA,125925.200,6228.3215,N,00614.0638,E,1,08,0.94,28.6,M,43.3,M,,*5E
$GPRMC,125925.200,A,6228.3215,N,00614.0638,E,0.27,256.29,270416,,,A*68

$GPGGA,125925.400,6228.3215,N,00614.0638,E,1,08,0.94,28.6,M,43.3,M,,*58
$GPRMC,125925.400,A,6228.3215,N,00614.0638,E,0.26,255.45,270416,,,A*66

$GPGGA,125925.600,6228.3215,N,00614.0638,E,1,08,0.94,28.6,M,43.3,M,,*5A
$GPRMC,125925.600,A,6228.3215,N,00614.0638,E,0.26,254.64,270416,,,A*66

$GPGGA,125925.800,6228.3215,N,00614.0637,E,1,08,0.94,28.6,M,43.3,M,,*5B
$GPRMC,125925.800,A,6228.3215,N,00614.0637,E,0.26,254.43,270416,,,A*62

$GPGGA,125926.000,6228.3215,N,00614.0637,E,1,08,0.94,28.6,M,43.3,M,,*50
$GPRMC,125926.000,A,6228.3215,N,00614.0637,E,0.26,254.45,270416,,,A*6F

$GPGGA,125926.200,6228.3215,N,00614.0637,E,1,08,0.94,28.6,M,43.3,M,,*52
$GPRMC,125926.200,A,6228.3215,N,00614.0637,E,0.27,255.18,270416,,,A*65

$GPGGA,125926.400,6228.3215,N,00614.0636,E,1,08,0.94,28.6,M,43.3,M,,*55
$GPRMC,125926.400,A,6228.3215,N,00614.0636,E,0.26,255.15,270416,,,A*6E

$GPGGA,125926.600,6228.3215,N,00614.0636,E,1,08,0.94,28.6,M,43.3,M,,*57
$GPRMC,125926.600,A,6228.3215,N,00614.0636,E,0.26,253.28,270416,,,A*64

$GPGGA,125926.800,6228.3215,N,00614.0636,E,1,08,0.94,28.6,M,43.3,M,,*59
$GPRMC,125926.800,A,6228.3215,N,00614.0636,E,0.26,252.83,270416,,,A*6A

$GPGGA,125927.000,6228.3215,N,00614.0636,E,1,08,0.94,28.6,M,43.3,M,,*50
$GPRMC,125927.000,A,6228.3215,N,00614.0636,E,0.27,252.23,270416,,,A*68

$GPGGA,125927.200,6228.3215,N,00614.0635,E,1,08,0.94,28.6,M,43.3,M,,*51
$GPRMC,125927.200,A,6228.3215,N,00614.0635,E,0.28,253.62,270416,,,A*62

$GPGGA,125927.400,6228.3215,N,00614.0635,E,1,08,0.94,28.6,M,43.3,M,,*57
$GPRMC,125927.400,A,6228.3215,N,00614.0635,E,0.30,255.98,270416,,,A*6E

$GPGGA,125927.600,6228.3215,N,00614.0634,E,1,08,0.94,28.6,M,43.3,M,,*54
$GPRMC,125927.600,A,6228.3215,N,00614.0634,E,0.32,257.08,270416,,,A*64

$GPGGA,125927.800,6228.3215,N,00614.0634,E,1,08,0.94,28.6,M,43.3,M,,*5A
$GPRMC,125927.800,A,6228.3215,N,00614.0634,E,0.34,257.92,270416,,,A*6F

$GPGGA,125928.000,6228.3215,N,00614.0634,E,1,08,0.94,28.6,M,43.3,M,,*5D
$GPRMC,125928.000,A,6228.3215,N,00614.0634,E,0.36,258.96,270416,,,A*61

$GPGGA,125928.200,6228.3215,N,00614.0633,E,1,08,0.94,28.6,M,43.3,M,,*58
$GPRMC,125928.200,A,6228.3215,N,00614.0633,E,0.38,259.75,270416,,,A*66

$GPGGA,125928.400,6228.3215,N,00614.0633,E,1,08,0.94,28.6,M,43.3,M,,*5E
$GPRMC,125928.400,A,6228.3215,N,00614.0633,E,0.41,261.21,270416,,,A*64

$GPGGA,125928.600,6228.3215,N,00614.0632,E,1,08,0.94,28.6,M,43.3,M,,*5D
$GPRMC,125928.600,A,6228.3215,N,00614.0632,E,0.43,262.76,270416,,,A*64

$GPGGA,125928.800,6228.3215,N,00614.0632,E,1,08,0.94,28.6,M,43.3,M,,*53
$GPRMC,125928.800,A,6228.3215,N,00614.0632,E,0.44,263.86,270416,,,A*63

$GPGGA,125929.000,6228.3215,N,00614.0631,E,1,08,0.94,28.6,M,43.3,M,,*59
$GPRMC,125929.000,A,6228.3215,N,00614.0631,E,0.46,264.58,270416,,,A*6F

$GPGGA,125929.200,6228.3215,N,00614.0631,E,1,08,0.94,28.6,M,43.3,M,,*5B
$GPRMC,125929.200,A,6228.3215,N,00614.0631,E,0.47,265.27,270416,,,A*65

$GPGGA,125929.400,6228.3215,N,00614.0630,E,1,08,0.94,28.6,M,43.3,M,,*5C
$GPRMC,125929.400,A,6228.3215,N,00614.0630,E,0.48,265.52,270416,,,A*6F

$GPGGA,125929.600,6228.3215,N,00614.0629,E,1,08,0.94,28.6,M,43.3,M,,*56
$GPRMC,125929.600,A,6228.3215,N,00614.0629,E,0.49,265.55,270416,,,A*63

$GPGGA,125929.800,6228.3215,N,00614.0629,E,1,08,0.94,28.6,M,43.3,M,,*58
$GPRMC,125929.800,A,6228.3215,N,00614.0629,E,0.50,265.44,270416,,,A*65

$GPGGA,125930.000,6228.3215,N,00614.0628,E,1,07,0.98,28.6,M,43.3,M,,*5A
$GPRMC,125930.000,A,6228.3215,N,00614.0628,E,0.52,265.17,270416,,,A*60

$GPGGA,125930.200,6228.3215,N,00614.0627,E,1,07,0.98,28.6,M,43.3,M,,*57
$GPRMC,125930.200,A,6228.3215,N,00614.0627,E,0.53,265.89,270416,,,A*6B

$GPGGA,125930.400,6228.3215,N,00614.0627,E,1,07,0.98,28.6,M,43.3,M,,*51
$GPRMC,125930.400,A,6228.3215,N,00614.0627,E,0.54,267.37,270416,,,A*6D

$GPGGA,125930.600,6228.3215,N,00614.0626,E,1,07,0.98,28.6,M,43.3,M,,*52
$GPRMC,125930.600,A,6228.3215,N,00614.0626,E,0.56,267.71,270416,,,A*6E

$GPGGA,125930.800,6228.3215,N,00614.0625,E,1,07,0.98,28.6,M,43.3,M,,*5F
$GPRMC,125930.800,A,6228.3215,N,00614.0625,E,0.58,267.90,270416,,,A*62

$GPGGA,125931.000,6228.3215,N,00614.0625,E,1,07,0.98,28.6,M,43.3,M,,*56
$GPRMC,125931.000,A,6228.3215,N,00614.0625,E,0.60,268.12,270416,,,A*65

$GPGGA,125931.200,6228.3215,N,00614.0622,E,1,07,0.98,28.6,M,43.3,M,,*53
$GPRMC,125931.200,A,6228.3215,N,00614.0622,E,0.61,268.13,270416,,,A*60

$GPGGA,125931.400,6228.3215,N,00614.0619,E,1,07,0.98,28.6,M,43.3,M,,*5D
$GPRMC,125931.400,A,6228.3215,N,00614.0619,E,0.63,267.69,270416,,,A*6E

$GPGGA,125931.600,6228.3214,N,00614.0617,E,1,07,0.98,28.6,M,43.3,M,,*50
$GPRMC,125931.600,A,6228.3214,N,00614.0617,E,0.64,266.75,270416,,,A*68

$GPGGA,125931.800,6228.3214,N,00614.0614,E,1,07,0.98,28.6,M,43.3,M,,*5D
$GPRMC,125931.800,A,6228.3214,N,00614.0614,E,0.65,266.82,270416,,,A*6C

$GPGGA,125932.000,6228.3214,N,00614.0612,E,1,07,0.98,28.6,M,43.3,M,,*50
$GPRMC,125932.000,A,6228.3214,N,00614.0612,E,0.65,265.95,270416,,,A*64

$GPGGA,125932.200,6228.3214,N,00614.0610,E,1,07,0.98,28.6,M,43.3,M,,*50
$GPRMC,125932.200,A,6228.3214,N,00614.0610,E,0.65,265.26,270416,,,A*6C

$GPGGA,125932.400,6228.3214,N,00614.0609,E,1,07,0.98,28.6,M,43.3,M,,*5E
$GPRMC,125932.400,A,6228.3214,N,00614.0609,E,0.65,264.54,270416,,,A*66

$GPGGA,125932.600,6228.3214,N,00614.0607,E,1,07,0.98,28.6,M,43.3,M,,*52
$GPRMC,125932.600,A,6228.3214,N,00614.0607,E,0.65,264.46,270416,,,A*69

$GPGGA,125932.800,6228.3215,N,00614.0605,E,1,07,0.98,28.6,M,43.3,M,,*5F
$GPRMC,125932.800,A,6228.3215,N,00614.0605,E,0.65,265.68,270416,,,A*69

$GPGGA,125933.000,6228.3215,N,00614.0603,E,1,07,0.98,28.5,M,43.3,M,,*53
$GPRMC,125933.000,A,6228.3215,N,00614.0603,E,0.66,266.60,270416,,,A*6E

$GPGGA,125933.200,6228.3216,N,00614.0602,E,1,07,0.98,28.5,M,43.3,M,,*53
$GPRMC,125933.200,A,6228.3216,N,00614.0602,E,0.66,267.18,270416,,,A*60

$GPGGA,125933.400,6228.3216,N,00614.0600,E,1,07,0.98,28.5,M,43.3,M,,*57
$GPRMC,125933.400,A,6228.3216,N,00614.0600,E,0.67,267.80,270416,,,A*64

$GPGGA,125933.600,6228.3216,N,00614.0598,E,1,07,0.98,28.5,M,43.3,M,,*57
$GPRMC,125933.600,A,6228.3216,N,00614.0598,E,0.68,268.59,270416,,,A*60

$GPGGA,125933.800,6228.3217,N,00614.0596,E,1,07,0.98,28.5,M,43.3,M,,*56
$GPRMC,125933.800,A,6228.3217,N,00614.0596,E,0.69,269.89,270416,,,A*6C

$GPGGA,125934.000,6228.3217,N,00614.0594,E,1,07,0.98,28.5,M,43.3,M,,*5B
$GPRMC,125934.000,A,6228.3217,N,00614.0594,E,0.70,270.99,270416,,,A*60

$GPGGA,125934.200,6228.3218,N,00614.0591,E,1,07,0.98,28.5,M,43.3,M,,*53
$GPRMC,125934.200,A,6228.3218,N,00614.0591,E,0.71,272.23,270416,,,A*6A

$GPGGA,125934.400,6228.3219,N,00614.0590,E,1,07,0.98,28.5,M,43.3,M,,*55
$GPRMC,125934.400,A,6228.3219,N,00614.0590,E,0.71,273.55,270416,,,A*6C

$GPGGA,125934.600,6228.3219,N,00614.0588,E,1,07,0.98,28.5,M,43.3,M,,*5E
$GPRMC,125934.600,A,6228.3219,N,00614.0588,E,0.71,274.95,270416,,,A*6C

$GPGGA,125934.800,6228.3219,N,00614.0585,E,1,07,0.98,28.5,M,43.3,M,,*5D
$GPRMC,125934.800,A,6228.3219,N,00614.0585,E,0.72,275.73,270416,,,A*65

$GPGGA,125935.000,6228.3220,N,00614.0583,E,1,07,0.98,28.5,M,43.3,M,,*58
$GPRMC,125935.000,A,6228.3220,N,00614.0583,E,0.73,276.94,270416,,,A*6B

$GPGGA,125935.200,6228.3220,N,00614.0581,E,1,07,0.98,28.5,M,43.3,M,,*58
$GPRMC,125935.200,A,6228.3220,N,00614.0581,E,0.72,278.00,270416,,,A*69

$GPGGA,125935.400,6228.3221,N,00614.0580,E,1,07,0.98,28.5,M,43.3,M,,*5E
$GPRMC,125935.400,A,6228.3221,N,00614.0580,E,0.72,278.83,270416,,,A*64

$GPGGA,125935.600,6228.3221,N,00614.0578,E,1,07,0.98,28.5,M,43.3,M,,*5B
$GPRMC,125935.600,A,6228.3221,N,00614.0578,E,0.72,279.76,270416,,,A*6A

$GPGGA,125935.800,6228.3221,N,00614.0576,E,1,07,0.98,28.5,M,43.3,M,,*5B
$GPRMC,125935.800,A,6228.3221,N,00614.0576,E,0.73,280.89,270416,,,A*6D

$GPGGA,125936.000,6228.3222,N,00614.0574,E,1,07,0.98,28.5,M,43.3,M,,*51
$GPRMC,125936.000,A,6228.3222,N,00614.0574,E,0.73,281.49,270416,,,A*6A

$GPGGA,125936.200,6228.3222,N,00614.0573,E,1,07,0.98,28.5,M,43.3,M,,*54
$GPRMC,125936.200,A,6228.3222,N,00614.0573,E,0.73,282.85,270416,,,A*6C

$GPGGA,125936.400,6228.3223,N,00614.0572,E,1,07,0.98,28.5,M,43.3,M,,*52
$GPRMC,125936.400,A,6228.3223,N,00614.0572,E,0.71,285.30,270416,,,A*61

$GPGGA,125936.600,6228.3224,N,00614.0570,E,1,07,0.98,28.5,M,43.3,M,,*55
$GPRMC,125936.600,A,6228.3224,N,00614.0570,E,0.72,287.04,270416,,,A*60

$GPGGA,125936.800,6228.3224,N,00614.0568,E,1,07,0.98,28.5,M,43.3,M,,*52
$GPRMC,125936.800,A,6228.3224,N,00614.0568,E,0.73,288.14,270416,,,A*68

$GPGGA,125937.000,6228.3225,N,00614.0566,E,1,07,0.98,28.5,M,43.3,M,,*54
$GPRMC,125937.000,A,6228.3225,N,00614.0566,E,0.74,289.09,270416,,,A*64

$GPGGA,125937.200,6228.3226,N,00614.0565,E,1,07,0.98,28.5,M,43.3,M,,*56
$GPRMC,125937.200,A,6228.3226,N,00614.0565,E,0.75,290.40,270416,,,A*62

$GPGGA,125937.400,6228.3227,N,00614.0563,E,1,07,0.98,28.5,M,43.3,M,,*57
$GPRMC,125937.400,A,6228.3227,N,00614.0563,E,0.77,291.89,270416,,,A*65

$GPGGA,125937.600,6228.3227,N,00614.0561,E,1,07,0.98,28.5,M,43.3,M,,*57
$GPRMC,125937.600,A,6228.3227,N,00614.0561,E,0.78,293.20,270416,,,A*6B

$GPGGA,125937.800,6228.3228,N,00614.0559,E,1,07,0.98,28.5,M,43.3,M,,*5D
$GPRMC,125937.800,A,6228.3228,N,00614.0559,E,0.80,294.00,270416,,,A*63

$GPGGA,125938.000,6228.3229,N,00614.0558,E,1,07,0.98,28.5,M,43.3,M,,*5A
$GPRMC,125938.000,A,6228.3229,N,00614.0558,E,0.82,295.11,270416,,,A*67

$GPGGA,125938.200,6228.3230,N,00614.0556,E,1,07,0.98,28.5,M,43.3,M,,*5E
$GPRMC,125938.200,A,6228.3230,N,00614.0556,E,0.84,296.07,270416,,,A*61

$GPGGA,125938.400,6228.3230,N,00614.0554,E,1,07,0.98,28.5,M,43.3,M,,*5A
$GPRMC,125938.400,A,6228.3230,N,00614.0554,E,0.85,297.13,270416,,,A*60

$GPGGA,125938.600,6228.3231,N,00614.0553,E,1,07,0.98,28.5,M,43.3,M,,*5E
$GPRMC,125938.600,A,6228.3231,N,00614.0553,E,0.86,298.87,270416,,,A*65

$GPGGA,125938.800,6228.3232,N,00614.0552,E,1,07,0.98,28.5,M,43.3,M,,*52
$GPRMC,125938.800,A,6228.3232,N,00614.0552,E,0.86,299.37,270416,,,A*63

$GPGGA,125939.000,6228.3233,N,00614.0551,E,1,07,0.98,28.5,M,43.3,M,,*59
$GPRMC,125939.000,A,6228.3233,N,00614.0551,E,0.86,300.47,270416,,,A*6E

$GPGGA,125939.200,6228.3234,N,00614.0550,E,1,07,0.98,28.5,M,43.3,M,,*5D
$GPRMC,125939.200,A,6228.3234,N,00614.0550,E,0.86,301.85,270416,,,A*65

$GPGGA,125939.400,6228.3234,N,00614.0550,E,1,07,0.98,28.5,M,43.3,M,,*5B
$GPRMC,125939.400,A,6228.3234,N,00614.0550,E,0.85,303.17,270416,,,A*69

$GPGGA,125939.600,6228.3235,N,00614.0549,E,1,07,0.98,28.5,M,43.3,M,,*50
$GPRMC,125939.600,A,6228.3235,N,00614.0549,E,0.84,304.33,270416,,,A*62

$GPGGA,125939.800,6228.3236,N,00614.0548,E,1,07,0.98,28.5,M,43.3,M,,*5C
$GPRMC,125939.800,A,6228.3236,N,00614.0548,E,0.85,305.28,270416,,,A*64

$GPGGA,125940.000,6228.3237,N,00614.0547,E,1,07,0.98,28.5,M,43.3,M,,*54
$GPRMC,125940.000,A,6228.3237,N,00614.0547,E,0.86,306.53,270416,,,A*60

$GPGGA,125940.200,6228.3237,N,00614.0546,E,1,07,0.98,28.5,M,43.3,M,,*57
$GPRMC,125940.200,A,6228.3237,N,00614.0546,E,0.86,307.87,270416,,,A*6B

$GPGGA,125940.400,6228.3239,N,00614.0545,E,1,07,0.98,28.5,M,43.3,M,,*5C
$GPRMC,125940.400,A,6228.3239,N,00614.0545,E,0.87,309.28,270416,,,A*6A

$GPGGA,125940.600,6228.3239,N,00614.0545,E,1,07,0.98,28.5,M,43.3,M,,*5E
$GPRMC,125940.600,A,6228.3239,N,00614.0545,E,0.87,310.51,270416,,,A*6E

$GPGGA,125940.800,6228.3240,N,00614.0545,E,1,07,0.98,28.5,M,43.3,M,,*5E
$GPRMC,125940.800,A,6228.3240,N,00614.0545,E,0.86,311.72,270416,,,A*6F

$GPGGA,125941.000,6228.3241,N,00614.0545,E,1,07,0.98,28.5,M,43.3,M,,*56
$GPRMC,125941.000,A,6228.3241,N,00614.0545,E,0.84,313.61,270416,,,A*65

$GPGGA,125941.200,6228.3242,N,00614.0545,E,1,07,0.98,28.5,M,43.3,M,,*57
$GPRMC,125941.200,A,6228.3242,N,00614.0545,E,0.83,316.02,270416,,,A*63

$GPGGA,125941.400,6228.3243,N,00614.0545,E,1,07,0.98,28.5,M,43.3,M,,*50
$GPRMC,125941.400,A,6228.3243,N,00614.0545,E,0.81,318.61,270416,,,A*6D

$GPGGA,125941.600,6228.3243,N,00614.0546,E,1,07,0.98,28.5,M,43.3,M,,*51
$GPRMC,125941.600,A,6228.3243,N,00614.0546,E,0.79,320.43,270416,,,A*60

$GPGGA,125941.800,6228.3243,N,00614.0546,E,1,07,0.98,28.5,M,43.3,M,,*5F
$GPRMC,125941.800,A,6228.3243,N,00614.0546,E,0.79,321.45,270416,,,A*69

$GPGGA,125942.000,6228.3244,N,00614.0546,E,1,07,0.98,28.5,M,43.3,M,,*53
$GPRMC,125942.000,A,6228.3244,N,00614.0546,E,0.79,322.92,270416,,,A*6C

$GPGGA,125942.200,6228.3244,N,00614.0547,E,1,07,0.98,28.5,M,43.3,M,,*50
$GPRMC,125942.200,A,6228.3244,N,00614.0547,E,0.78,325.67,270416,,,A*63

$GPGGA,125942.400,6228.3245,N,00614.0548,E,1,07,0.98,28.5,M,43.3,M,,*58
$GPRMC,125942.400,A,6228.3245,N,00614.0548,E,0.77,327.52,270416,,,A*60

$GPGGA,125942.600,6228.3245,N,00614.0549,E,1,07,0.98,28.5,M,43.3,M,,*5B
$GPRMC,125942.600,A,6228.3245,N,00614.0549,E,0.75,329.25,270416,,,A*6F

$GPGGA,125942.800,6228.3245,N,00614.0549,E,1,07,0.98,28.5,M,43.3,M,,*55
$GPRMC,125942.800,A,6228.3245,N,00614.0549,E,0.75,329.81,270416,,,A*6F

$GPGGA,125943.000,6228.3246,N,00614.0549,E,1,07,0.98,28.5,M,43.3,M,,*5F
$GPRMC,125943.000,A,6228.3246,N,00614.0549,E,0.75,330.27,270416,,,A*61

$GPGGA,125943.200,6228.3246,N,00614.0549,E,1,07,0.98,28.5,M,43.3,M,,*5D
$GPRMC,125943.200,A,6228.3246,N,00614.0549,E,0.74,330.89,270416,,,A*66

$GPGGA,125943.400,6228.3246,N,00614.0550,E,1,07,0.98,28.5,M,43.3,M,,*53
$GPRMC,125943.400,A,6228.3246,N,00614.0550,E,0.74,332.25,270416,,,A*6C

$GPGGA,125943.600,6228.3247,N,00614.0550,E,1,07,0.98,28.5,M,43.3,M,,*50
$GPRMC,125943.600,A,6228.3247,N,00614.0550,E,0.73,333.22,270416,,,A*6E

$GPGGA,125943.800,6228.3247,N,00614.0550,E,1,07,0.98,28.5,M,43.3,M,,*5E
$GPRMC,125943.800,A,6228.3247,N,00614.0550,E,0.73,333.89,270416,,,A*61

$GPGGA,125944.000,6228.3247,N,00614.0550,E,1,07,0.98,28.5,M,43.3,M,,*51
$GPRMC,125944.000,A,6228.3247,N,00614.0550,E,0.72,334.91,270416,,,A*61

$GPGGA,125944.200,6228.3247,N,00614.0551,E,1,07,0.98,28.5,M,43.3,M,,*52
$GPRMC,125944.200,A,6228.3247,N,00614.0551,E,0.71,336.04,270416,,,A*6F

$GPGGA,125944.400,6228.3248,N,00614.0551,E,1,07,0.98,28.5,M,43.3,M,,*5B
$GPRMC,125944.400,A,6228.3248,N,00614.0551,E,0.70,336.97,270416,,,A*6D

$GPGGA,125944.600,6228.3248,N,00614.0551,E,1,07,0.98,28.5,M,43.3,M,,*59
$GPRMC,125944.600,A,6228.3248,N,00614.0551,E,0.70,337.46,270416,,,A*62

$GPGGA,125944.800,6228.3248,N,00614.0551,E,1,07,0.98,28.5,M,43.3,M,,*57
$GPRMC,125944.800,A,6228.3248,N,00614.0551,E,0.70,338.00,270416,,,A*61

$GPGGA,125945.000,6228.3249,N,00614.0551,E,1,07,0.98,28.5,M,43.3,M,,*5F
$GPRMC,125945.000,A,6228.3249,N,00614.0551,E,0.71,338.84,270416,,,A*64

$GPGGA,125945.200,6228.3249,N,00614.0552,E,1,07,0.98,28.5,M,43.3,M,,*5E
$GPRMC,125945.200,A,6228.3249,N,00614.0552,E,0.71,339.82,270416,,,A*62

$GPGGA,125945.400,6228.3250,N,00614.0552,E,1,08,0.94,28.5,M,43.3,M,,*53
$GPRMC,125945.400,A,6228.3250,N,00614.0552,E,0.71,341.01,270416,,,A*68

$GPGGA,125945.600,6228.3250,N,00614.0552,E,1,08,0.94,28.5,M,43.3,M,,*51
$GPRMC,125945.600,A,6228.3250,N,00614.0552,E,0.71,341.61,270416,,,A*6C

$GPGGA,125945.800,6228.3250,N,00614.0552,E,1,08,0.94,28.5,M,43.3,M,,*5F
$GPRMC,125945.800,A,6228.3250,N,00614.0552,E,0.71,341.86,270416,,,A*6B

$GPGGA,125946.000,6228.3251,N,00614.0552,E,1,08,0.94,28.5,M,43.3,M,,*55
$GPRMC,125946.000,A,6228.3251,N,00614.0552,E,0.71,341.93,270416,,,A*65

$GPGGA,125946.200,6228.3251,N,00614.0552,E,1,08,0.94,28.5,M,43.3,M,,*57
$GPRMC,125946.200,A,6228.3251,N,00614.0552,E,0.71,342.51,270416,,,A*6A

$GPGGA,125946.400,6228.3251,N,00614.0552,E,1,08,0.94,28.5,M,43.3,M,,*51
$GPRMC,125946.400,A,6228.3251,N,00614.0552,E,0.70,342.74,270416,,,A*6A

$GPGGA,125946.600,6228.3252,N,00614.0552,E,1,08,0.94,28.4,M,43.3,M,,*51
$GPRMC,125946.600,A,6228.3252,N,00614.0552,E,0.70,342.84,270416,,,A*64

$GPGGA,125946.800,6228.3252,N,00614.0551,E,1,08,0.94,28.4,M,43.3,M,,*5C
$GPRMC,125946.800,A,6228.3252,N,00614.0551,E,0.69,342.38,270416,,,A*66

$GPGGA,125947.000,6228.3252,N,00614.0551,E,1,08,0.94,28.4,M,43.3,M,,*55
$GPRMC,125947.000,A,6228.3252,N,00614.0551,E,0.69,342.78,270416,,,A*6B

$GPGGA,125947.200,6228.3252,N,00614.0550,E,1,08,0.94,28.4,M,43.3,M,,*56
$GPRMC,125947.200,A,6228.3252,N,00614.0550,E,0.68,342.12,270416,,,A*65

$GPGGA,125947.400,6228.3252,N,00614.0549,E,1,08,0.94,28.4,M,43.3,M,,*58
$GPRMC,125947.400,A,6228.3252,N,00614.0549,E,0.66,341.74,270416,,,A*66

$GPGGA,125947.600,6228.3252,N,00614.0549,E,1,08,0.94,28.4,M,43.3,M,,*5A
$GPRMC,125947.600,A,6228.3252,N,00614.0549,E,0.64,340.95,270416,,,A*68

$GPGGA,125947.800,6228.3251,N,00614.0548,E,1,08,0.94,28.4,M,43.3,M,,*56
$GPRMC,125947.800,A,6228.3251,N,00614.0548,E,0.63,340.22,270416,,,A*6F

$GPGGA,125948.000,6228.3251,N,00614.0547,E,1,08,0.94,28.4,M,43.3,M,,*5E
$GPRMC,125948.000,A,6228.3251,N,00614.0547,E,0.62,336.80,270416,,,A*6F

$GPGGA,125948.200,6228.3251,N,00614.0546,E,1,08,0.94,28.4,M,43.3,M,,*5D
$GPRMC,125948.200,A,6228.3251,N,00614.0546,E,0.60,335.07,270416,,,A*62

$GPGGA,125948.400,6228.3251,N,00614.0546,E,1,08,0.94,28.4,M,43.3,M,,*5B
$GPRMC,125948.400,A,6228.3251,N,00614.0546,E,0.60,334.53,270416,,,A*64

$GPGGA,125948.600,6228.3252,N,00614.0546,E,1,08,0.94,28.4,M,43.3,M,,*5A
$GPRMC,125948.600,A,6228.3252,N,00614.0546,E,0.60,334.56,270416,,,A*60

$GPGGA,125948.800,6228.3252,N,00614.0546,E,1,08,0.94,28.4,M,43.3,M,,*54
$GPRMC,125948.800,A,6228.3252,N,00614.0546,E,0.60,335.32,270416,,,A*6D

$GPGGA,125949.000,6228.3252,N,00614.0545,E,1,08,0.94,28.4,M,43.3,M,,*5E
$GPRMC,125949.000,A,6228.3252,N,00614.0545,E,0.60,335.69,270416,,,A*69

$GPGGA,125949.200,6228.3253,N,00614.0545,E,1,08,0.94,28.4,M,43.3,M,,*5D
$GPRMC,125949.200,A,6228.3253,N,00614.0545,E,0.59,335.89,270416,,,A*6E

$GPGGA,125949.400,6228.3253,N,00614.0545,E,1,08,0.94,28.4,M,43.3,M,,*5B
$GPRMC,125949.400,A,6228.3253,N,00614.0545,E,0.59,336.24,270416,,,A*6C

$GPGGA,125949.600,6228.3253,N,00614.0544,E,1,08,0.94,28.4,M,43.3,M,,*58
$GPRMC,125949.600,A,6228.3253,N,00614.0544,E,0.58,336.58,270416,,,A*65

$GPGGA,125949.800,6228.3254,N,00614.0544,E,1,08,0.94,28.4,M,43.3,M,,*51
$GPRMC,125949.800,A,6228.3254,N,00614.0544,E,0.58,336.88,270416,,,A*61

$GPGGA,125950.000,6228.3254,N,00614.0544,E,1,08,0.94,28.4,M,43.3,M,,*51
$GPRMC,125950.000,A,6228.3254,N,00614.0544,E,0.57,336.76,270416,,,A*6F

$GPGGA,125950.200,6228.3254,N,00614.0544,E,1,08,0.94,28.4,M,43.3,M,,*53
$GPRMC,125950.200,A,6228.3254,N,00614.0544,E,0.56,337.45,270416,,,A*6D

$GPGGA,125950.400,6228.3255,N,00614.0544,E,1,08,0.94,28.4,M,43.3,M,,*54
$GPRMC,125950.400,A,6228.3255,N,00614.0544,E,0.55,339.92,270416,,,A*6D

$GPGGA,125950.600,6228.3255,N,00614.0545,E,1,08,0.94,28.4,M,43.3,M,,*57
$GPRMC,125950.600,A,6228.3255,N,00614.0545,E,0.54,342.72,270416,,,A*6D

$GPGGA,125950.800,6228.3256,N,00614.0545,E,1,08,0.94,28.4,M,43.3,M,,*5A
$GPRMC,125950.800,A,6228.3256,N,00614.0545,E,0.54,343.48,270416,,,A*68

$GPGGA,125951.000,6228.3256,N,00614.0546,E,1,08,0.94,28.4,M,43.3,M,,*50
$GPRMC,125951.000,A,6228.3256,N,00614.0546,E,0.54,344.97,270416,,,A*67

$GPGGA,125951.200,6228.3257,N,00614.0547,E,1,08,0.94,28.4,M,43.3,M,,*52
$GPRMC,125951.200,A,6228.3257,N,00614.0547,E,0.54,346.48,270416,,,A*65

$GPGGA,125951.400,6228.3257,N,00614.0548,E,1,08,0.97,28.4,M,43.3,M,,*58
$GPRMC,125951.400,A,6228.3257,N,00614.0548,E,0.53,347.11,270416,,,A*66

$GPGGA,125951.600,6228.3258,N,00614.0548,E,1,08,0.97,28.4,M,43.3,M,,*55
$GPRMC,125951.600,A,6228.3258,N,00614.0548,E,0.52,346.96,270416,,,A*64

$GPGGA,125951.800,6228.3258,N,00614.0549,E,1,08,0.97,28.4,M,43.3,M,,*5A
$GPRMC,125951.800,A,6228.3258,N,00614.0549,E,0.50,347.52,270416,,,A*60

$GPGGA,125952.000,6228.3258,N,00614.0549,E,1,08,0.97,28.4,M,43.3,M,,*51
$GPRMC,125952.000,A,6228.3258,N,00614.0549,E,0.50,346.99,270416,,,A*6D

$GPGGA,125952.200,6228.3258,N,00614.0548,E,1,08,0.97,28.4,M,43.3,M,,*52
$GPRMC,125952.200,A,6228.3258,N,00614.0548,E,0.49,346.64,270416,,,A*64

$GPGGA,125952.400,6228.3258,N,00614.0548,E,1,08,0.97,28.4,M,43.3,M,,*54
$GPRMC,125952.400,A,6228.3258,N,00614.0548,E,0.47,346.55,270416,,,A*6E

$GPGGA,125952.600,6228.3258,N,00614.0548,E,1,08,0.97,28.4,M,43.3,M,,*56
$GPRMC,125952.600,A,6228.3258,N,00614.0548,E,0.46,346.68,270416,,,A*63

$GPGGA,125952.800,6228.3258,N,00614.0548,E,1,08,0.97,28.4,M,43.3,M,,*58
$GPRMC,125952.800,A,6228.3258,N,00614.0548,E,0.47,347.14,270416,,,A*66

$GPGGA,125953.000,6228.3258,N,00614.0548,E,1,08,0.97,28.4,M,43.3,M,,*51
$GPRMC,125953.000,A,6228.3258,N,00614.0548,E,0.46,347.30,270416,,,A*68

$GPGGA,125953.200,6228.3259,N,00614.0548,E,1,08,0.97,28.4,M,43.3,M,,*52
$GPRMC,125953.200,A,6228.3259,N,00614.0548,E,0.44,346.88,270416,,,A*6B

$GPGGA,125953.400,6228.3259,N,00614.0548,E,1,08,0.97,28.4,M,43.3,M,,*54
$GPRMC,125953.400,A,6228.3259,N,00614.0548,E,0.42,346.35,270416,,,A*6D

$GPGGA,125953.600,6228.3259,N,00614.0547,E,1,08,0.97,28.4,M,43.3,M,,*59
$GPRMC,125953.600,A,6228.3259,N,00614.0547,E,0.39,344.17,270416,,,A*6E

$GPGGA,125953.800,6228.3259,N,00614.0547,E,1,08,0.94,28.4,M,43.3,M,,*54
$GPRMC,125953.800,A,6228.3259,N,00614.0547,E,0.38,343.18,270416,,,A*69

$GPGGA,125954.000,6228.3259,N,00614.0547,E,1,08,0.94,28.4,M,43.3,M,,*5B
$GPRMC,125954.000,A,6228.3259,N,00614.0547,E,0.37,341.83,270416,,,A*69

$GPGGA,125954.200,6228.3260,N,00614.0547,E,1,08,0.94,28.4,M,43.3,M,,*53
$GPRMC,125954.200,A,6228.3260,N,00614.0547,E,0.35,340.04,270416,,,A*6D

$GPGGA,125954.400,6228.3260,N,00614.0547,E,1,08,0.94,28.4,M,43.3,M,,*55
$GPRMC,125954.400,A,6228.3260,N,00614.0547,E,0.32,340.93,270416,,,A*62

$GPGGA,125954.600,6228.3260,N,00614.0547,E,1,08,0.94,28.4,M,43.3,M,,*57
$GPRMC,125954.600,A,6228.3260,N,00614.0547,E,0.30,341.16,270416,,,A*6E

$GPGGA,125954.800,6228.3260,N,00614.0547,E,1,08,0.94,28.4,M,43.3,M,,*59
$GPRMC,125954.800,A,6228.3260,N,00614.0547,E,0.29,339.47,270416,,,A*63

$GPGGA,125955.000,6228.3260,N,00614.0546,E,1,08,0.94,28.4,M,43.3,M,,*51
$GPRMC,125955.000,A,6228.3260,N,00614.0546,E,0.29,338.32,270416,,,A*68

$GPGGA,125955.200,6228.3260,N,00614.0546,E,1,08,0.94,28.4,M,43.3,M,,*53
$GPRMC,125955.200,A,6228.3260,N,00614.0546,E,0.29,338.08,270416,,,A*63

$GPGGA,125955.400,6228.3260,N,00614.0546,E,1,08,0.94,28.4,M,43.3,M,,*55
$GPRMC,125955.400,A,6228.3260,N,00614.0546,E,0.28,336.04,270416,,,A*66

$GPGGA,125955.600,6228.3261,N,00614.0546,E,1,08,0.94,28.4,M,43.3,M,,*56
$GPRMC,125955.600,A,6228.3261,N,00614.0546,E,0.27,332.48,270416,,,A*66

$GPGGA,125955.800,6228.3261,N,00614.0546,E,1,08,0.94,28.4,M,43.3,M,,*58
$GPRMC,125955.800,A,6228.3261,N,00614.0546,E,0.27,329.60,270416,,,A*68

$GPGGA,125956.000,6228.3261,N,00614.0546,E,1,08,0.94,28.4,M,43.3,M,,*53
$GPRMC,125956.000,A,6228.3261,N,00614.0546,E,0.28,325.48,270416,,,A*6A

$GPGGA,125956.200,6228.3261,N,00614.0545,E,1,08,0.94,28.4,M,43.3,M,,*52
$GPRMC,125956.200,A,6228.3261,N,00614.0545,E,0.29,321.55,270416,,,A*62

$GPGGA,125956.400,6228.3261,N,00614.0545,E,1,08,0.94,28.4,M,43.3,M,,*54
$GPRMC,125956.400,A,6228.3261,N,00614.0545,E,0.30,318.64,270416,,,A*64

$GPGGA,125956.600,6228.3261,N,00614.0545,E,1,08,0.94,28.4,M,43.3,M,,*56
$GPRMC,125956.600,A,6228.3261,N,00614.0545,E,0.30,317.21,270416,,,A*68

$GPGGA,125956.800,6228.3261,N,00614.0545,E,1,08,0.94,28.4,M,43.3,M,,*58
$GPRMC,125956.800,A,6228.3261,N,00614.0545,E,0.31,315.77,270416,,,A*66

$GPGGA,125957.000,6228.3261,N,00614.0544,E,1,08,0.94,28.4,M,43.3,M,,*50
$GPRMC,125957.000,A,6228.3261,N,00614.0544,E,0.31,315.37,270416,,,A*6A

$GPGGA,125957.200,6228.3262,N,00614.0544,E,1,08,0.94,28.4,M,43.3,M,,*51
$GPRMC,125957.200,A,6228.3262,N,00614.0544,E,0.30,314.35,270416,,,A*69

$GPGGA,125957.400,6228.3262,N,00614.0544,E,1,08,0.94,28.4,M,43.3,M,,*57
$GPRMC,125957.400,A,6228.3262,N,00614.0544,E,0.29,312.33,270416,,,A*67

$GPGGA,125957.600,6228.3262,N,00614.0544,E,1,08,0.94,28.4,M,43.3,M,,*55
$GPRMC,125957.600,A,6228.3262,N,00614.0544,E,0.28,310.69,270416,,,A*69

$GPGGA,125957.800,6228.3262,N,00614.0543,E,1,08,0.94,28.4,M,43.3,M,,*5C
$GPRMC,125957.800,A,6228.3262,N,00614.0543,E,0.28,309.84,270416,,,A*6B

$GPGGA,125958.000,6228.3262,N,00614.0543,E,1,08,0.94,28.4,M,43.3,M,,*5B
$GPRMC,125958.000,A,6228.3262,N,00614.0543,E,0.29,308.84,270416,,,A*6C

$GPGGA,125958.200,6228.3262,N,00614.0543,E,1,08,0.94,28.4,M,43.3,M,,*59
$GPRMC,125958.200,A,6228.3262,N,00614.0543,E,0.30,307.26,270416,,,A*61

$GPGGA,125958.400,6228.3262,N,00614.0543,E,1,08,0.94,28.4,M,43.3,M,,*5F
$GPRMC,125958.400,A,6228.3262,N,00614.0543,E,0.30,306.24,270416,,,A*64

