$GPGGA,093558.400,6228.1555,N,00614.2227,E,1,10,1.03,14.5,M,43.3,M,,*51
$GPRMC,093558.400,A,6228.1555,N,00614.2227,E,0.01,204.03,050516,,,A*67

$GPGGA,093558.600,6228.1555,N,00614.2227,E,1,10,1.03,14.5,M,43.3,M,,*53
$GPRMC,093558.600,A,6228.1555,N,00614.2227,E,0.01,343.08,050516,,,A*6C

$GPGGA,093558.800,6228.1555,N,00614.2227,E,1,10,1.03,14.5,M,43.3,M,,*5D
$GPRMC,093558.800,A,6228.1555,N,00614.2227,E,0.01,76.30,050516,,,A*5C

$GPGGA,093559.000,6228.1555,N,00614.2227,E,1,10,1.03,14.5,M,43.3,M,,*54
$GPRMC,093559.000,A,6228.1555,N,00614.2227,E,0.01,281.44,050516,,,A*6C

$GPGGA,093559.200,6228.1555,N,00614.2227,E,1,10,1.03,14.5,M,43.3,M,,*56
$GPRMC,093559.200,A,6228.1555,N,00614.2227,E,0.01,125.04,050516,,,A*67

$GPGGA,093559.400,6228.1555,N,00614.2227,E,1,10,1.03,14.5,M,43.3,M,,*50
$GPRMC,093559.400,A,6228.1555,N,00614.2227,E,0.00,233.55,050516,,,A*60

$GPGGA,093559.600,6228.1555,N,00614.2227,E,1,10,1.03,14.5,M,43.3,M,,*52
$GPRMC,093559.600,A,6228.1555,N,00614.2227,E,0.00,349.23,050516,,,A*6F

$GPGGA,093559.800,6228.1555,N,00614.2227,E,1,10,1.03,14.5,M,43.3,M,,*5C
$GPRMC,093559.800,A,6228.1555,N,00614.2227,E,0.01,174.67,050516,,,A*6C

$GPGGA,093600.000,6228.1555,N,00614.2227,E,1,10,1.03,14.5,M,43.3,M,,*5B
$GPRMC,093600.000,A,6228.1555,N,00614.2227,E,0.01,41.23,050516,,,A*5C

$GPGGA,093600.200,6228.1555,N,00614.2227,E,1,10,1.03,14.5,M,43.3,M,,*59
$GPRMC,093600.200,A,6228.1555,N,00614.2227,E,0.00,162.73,050516,,,A*6A

$GPGGA,093600.400,6228.1555,N,00614.2227,E,1,10,1.03,14.5,M,43.3,M,,*5F
$GPRMC,093600.400,A,6228.1555,N,00614.2227,E,0.00,285.22,050516,,,A*62

$GPGGA,093600.600,6228.1555,N,00614.2227,E,1,10,1.03,14.5,M,43.3,M,,*5D
$GPRMC,093600.600,A,6228.1555,N,00614.2227,E,0.01,155.06,050516,,,A*69

$GPGGA,093600.800,6228.1555,N,00614.2227,E,1,10,1.03,14.5,M,43.3,M,,*53
$GPRMC,093600.800,A,6228.1555,N,00614.2227,E,0.02,303.97,050516,,,A*6D

$GPGGA,093601.000,6228.1555,N,00614.2227,E,1,10,1.03,14.5,M,43.3,M,,*5A
$GPRMC,093601.000,A,6228.1555,N,00614.2227,E,0.01,51.76,050516,,,A*5C

$GPGGA,093601.200,6228.1555,N,00614.2227,E,1,10,1.03,14.5,M,43.3,M,,*58
$GPRMC,093601.200,A,6228.1555,N,00614.2227,E,0.01,138.63,050516,,,A*64

$GPGGA,093601.400,6228.1555,N,00614.2227,E,1,10,1.03,14.5,M,43.3,M,,*5E
$GPRMC,093601.400,A,6228.1555,N,00614.2227,E,0.01,275.42,050516,,,A*6B

$GPGGA,093601.600,6228.1555,N,00614.2227,E,1,10,1.03,14.5,M,43.3,M,,*5C
$GPRMC,093601.600,A,6228.1555,N,00614.2227,E,0.01,41.51,050516,,,A*5E

$GPGGA,093601.800,6228.1555,N,00614.2227,E,1,10,1.03,14.5,M,43.3,M,,*52
$GPRMC,093601.800,A,6228.1555,N,00614.2227,E,0.01,136.73,050516,,,A*61

$GPGGA,093602.000,6228.1555,N,00614.2227,E,1,10,1.03,14.5,M,43.3,M,,*59
$GPRMC,093602.000,A,6228.1555,N,00614.2227,E,0.01,206.83,050516,,,A*65

$GPGGA,093602.200,6228.1555,N,00614.2227,E,1,10,1.03,14.5,M,43.3,M,,*5B
$GPRMC,093602.200,A,6228.1555,N,00614.2227,E,0.01,265.18,050516,,,A*60

$GPGGA,093602.400,6228.1555,N,00614.2227,E,1,10,1.03,14.5,M,43.3,M,,*5D
$GPRMC,093602.400,A,6228.1555,N,00614.2227,E,0.01,55.04,050516,,,A*5A

$GPGGA,093602.600,6228.1555,N,00614.2227,E,1,10,1.03,14.5,M,43.3,M,,*5F
$GPRMC,093602.600,A,6228.1555,N,00614.2227,E,0.01,341.84,050516,,,A*66

$GPGGA,093602.800,6228.1555,N,00614.2227,E,1,10,1.03,14.5,M,43.3,M,,*51
$GPRMC,093602.800,A,6228.1555,N,00614.2227,E,0.01,159.05,050516,,,A*6A

$GPGGA,093603.000,6228.1555,N,00614.2227,E,1,10,1.03,14.5,M,43.3,M,,*58
$GPRMC,093603.000,A,6228.1555,N,00614.2227,E,0.01,332.09,050516,,,A*60

$GPGGA,093603.200,6228.1555,N,00614.2227,E,1,10,1.03,14.5,M,43.3,M,,*5A
$GPRMC,093603.200,A,6228.1555,N,00614.2227,E,0.01,172.29,050516,,,A*66

$GPGGA,093603.400,6228.1555,N,00614.2227,E,1,10,1.03,14.5,M,43.3,M,,*5C
$GPRMC,093603.400,A,6228.1555,N,00614.2227,E,0.01,66.79,050516,,,A*51

$GPGGA,093603.600,6228.1555,N,00614.2227,E,1,10,1.03,14.5,M,43.3,M,,*5E
$GPRMC,093603.600,A,6228.1555,N,00614.2227,E,0.01,195.86,050516,,,A*6E

$GPGGA,093603.800,6228.1555,N,00614.2227,E,1,10,1.03,14.5,M,43.3,M,,*50
$GPRMC,093603.800,A,6228.1555,N,00614.2227,E,0.01,74.99,050516,,,A*50

$GPGGA,093604.000,6228.1555,N,00614.2227,E,1,10,1.03,14.5,M,43.3,M,,*5F
$GPRMC,093604.000,A,6228.1555,N,00614.2227,E,0.01,266.88,050516,,,A*6E

$GPGGA,093604.200,6228.1555,N,00614.2227,E,1,10,1.03,14.5,M,43.3,M,,*5D
$GPRMC,093604.200,A,6228.1555,N,00614.2227,E,0.01,49.51,050516,,,A*57

$GPGGA,093604.400,6228.1555,N,00614.2227,E,1,10,1.03,14.5,M,43.3,M,,*5B
$GPRMC,093604.400,A,6228.1555,N,00614.2227,E,0.00,163.16,050516,,,A*6A

$GPGGA,093604.600,6228.1555,N,00614.2227,E,1,10,1.03,14.5,M,43.3,M,,*59
$GPRMC,093604.600,A,6228.1555,N,00614.2227,E,0.01,293.53,050516,,,A*64

$GPGGA,093604.800,6228.1555,N,00614.2227,E,1,10,1.03,14.5,M,43.3,M,,*57
$GPRMC,093604.800,A,6228.1555,N,00614.2227,E,0.01,191.94,050516,,,A*60

$GPGGA,093605.000,6228.1555,N,00614.2227,E,1,10,1.03,14.5,M,43.3,M,,*5E
$GPRMC,093605.000,A,6228.1555,N,00614.2227,E,0.01,336.98,050516,,,A*6A

$GPGGA,093605.200,6228.1555,N,00614.2227,E,1,10,1.03,14.5,M,43.3,M,,*5C
$GPRMC,093605.200,A,6228.1555,N,00614.2227,E,0.00,77.66,050516,,,A*5E

$GPGGA,093605.400,6228.1555,N,00614.2227,E,1,10,1.03,14.5,M,43.3,M,,*5A
$GPRMC,093605.400,A,6228.1555,N,00614.2227,E,0.01,123.93,050516,,,A*63

$GPGGA,093605.600,6228.1555,N,00614.2227,E,1,10,1.03,14.5,M,43.3,M,,*58
$GPRMC,093605.600,A,6228.1555,N,00614.2227,E,0.01,198.12,050516,,,A*68

$GPGGA,093605.800,6228.1555,N,00614.2227,E,1,10,1.03,14.5,M,43.3,M,,*56
$GPRMC,093605.800,A,6228.1555,N,00614.2227,E,0.01,331.85,050516,,,A*69

$GPGGA,093606.000,6228.1555,N,00614.2227,E,1,10,1.03,14.5,M,43.3,M,,*5D
$GPRMC,093606.000,A,6228.1555,N,00614.2227,E,0.01,41.00,050516,,,A*5B

$GPGGA,093606.200,6228.1555,N,00614.2227,E,1,10,1.03,14.5,M,43.3,M,,*5F
$GPRMC,093606.200,A,6228.1555,N,00614.2227,E,0.01,350.85,050516,,,A*67

$GPGGA,093606.400,6228.1555,N,00614.2227,E,1,10,1.03,14.5,M,43.3,M,,*59
$GPRMC,093606.400,A,6228.1555,N,00614.2227,E,0.01,174.52,050516,,,A*6F

$GPGGA,093606.600,6228.1555,N,00614.2227,E,1,10,1.03,14.5,M,43.3,M,,*5B
$GPRMC,093606.600,A,6228.1555,N,00614.2227,E,0.00,105.43,050516,,,A*6A

$GPGGA,093606.800,6228.1555,N,00614.2227,E,1,10,1.03,14.5,M,43.3,M,,*55
$GPRMC,093606.800,A,6228.1555,N,00614.2227,E,0.00,87.23,050516,,,A*59

$GPGGA,093607.000,6228.1555,N,00614.2227,E,1,10,1.03,14.5,M,43.3,M,,*5C
$GPRMC,093607.000,A,6228.1555,N,00614.2227,E,0.01,179.50,050516,,,A*65

$GPGGA,093607.200,6228.1555,N,00614.2227,E,1,10,1.03,14.5,M,43.3,M,,*5E
$GPRMC,093607.200,A,6228.1555,N,00614.2227,E,0.00,335.31,050516,,,A*6B

$GPGGA,093607.400,6228.1555,N,00614.2227,E,1,10,1.03,14.5,M,43.3,M,,*58
$GPRMC,093607.400,A,6228.1555,N,00614.2227,E,0.01,148.58,050516,,,A*6B

$GPGGA,093607.600,6228.1555,N,00614.2227,E,1,10,1.03,14.5,M,43.3,M,,*5A
$GPRMC,093607.600,A,6228.1555,N,00614.2227,E,0.01,344.94,050516,,,A*67

$GPGGA,093607.800,6228.1555,N,00614.2227,E,1,10,1.03,14.5,M,43.3,M,,*54
$GPRMC,093607.800,A,6228.1555,N,00614.2227,E,0.00,186.57,050516,,,A*6B

$GPGGA,093608.000,6228.1555,N,00614.2227,E,1,10,1.03,14.5,M,43.3,M,,*53
$GPRMC,093608.000,A,6228.1555,N,00614.2227,E,0.00,345.48,050516,,,A*6F

$GPGGA,093608.200,6228.1555,N,00614.2227,E,1,10,1.03,14.5,M,43.3,M,,*51
$GPRMC,093608.200,A,6228.1555,N,00614.2227,E,0.01,50.83,050516,,,A*5C

$GPGGA,093608.400,6228.1555,N,00614.2227,E,1,10,1.03,14.5,M,43.3,M,,*57
$GPRMC,093608.400,A,6228.1555,N,00614.2227,E,0.00,201.85,050516,,,A*6B

$GPGGA,093608.600,6228.1555,N,00614.2227,E,1,10,1.03,14.5,M,43.3,M,,*55
$GPRMC,093608.600,A,6228.1555,N,00614.2227,E,0.00,186.56,050516,,,A*6B

$GPGGA,093608.800,6228.1555,N,00614.2227,E,1,10,1.03,14.5,M,43.3,M,,*5B
$GPRMC,093608.800,A,6228.1555,N,00614.2227,E,0.01,41.01,050516,,,A*5C

$GPGGA,093609.000,6228.1555,N,00614.2227,E,1,10,1.03,14.5,M,43.3,M,,*52
$GPRMC,093609.000,A,6228.1555,N,00614.2227,E,0.00,189.19,050516,,,A*68

$GPGGA,093609.200,6228.1555,N,00614.2227,E,1,10,1.03,14.5,M,43.3,M,,*50
$GPRMC,093609.200,A,6228.1555,N,00614.2227,E,0.01,175.52,050516,,,A*67

$GPGGA,093609.400,6228.1555,N,00614.2227,E,1,10,1.03,14.5,M,43.3,M,,*56
$GPRMC,093609.400,A,6228.1555,N,00614.2227,E,0.01,68.97,050516,,,A*55

$GPGGA,093609.600,6228.1555,N,00614.2227,E,1,10,1.03,14.5,M,43.3,M,,*54
$GPRMC,093609.600,A,6228.1555,N,00614.2227,E,0.01,324.70,050516,,,A*65

$GPGGA,093609.800,6228.1555,N,00614.2227,E,1,10,1.03,14.5,M,43.3,M,,*5A
$GPRMC,093609.800,A,6228.1555,N,00614.2227,E,0.01,230.94,050516,,,A*65

$GPGGA,093610.000,6228.1555,N,00614.2227,E,1,10,1.03,14.5,M,43.3,M,,*5A
$GPRMC,093610.000,A,6228.1555,N,00614.2227,E,0.00,108.43,050516,,,A*66

$GPGGA,093610.200,6228.1555,N,00614.2227,E,1,10,1.03,14.5,M,43.3,M,,*58
$GPRMC,093610.200,A,6228.1555,N,00614.2227,E,0.02,25.46,050516,,,A*5D

$GPGGA,093610.400,6228.1555,N,00614.2227,E,1,10,1.03,14.5,M,43.3,M,,*5E
$GPRMC,093610.400,A,6228.1555,N,00614.2227,E,0.00,174.18,050516,,,A*67

$GPGGA,093610.600,6228.1555,N,00614.2227,E,1,10,1.03,14.5,M,43.3,M,,*5C
$GPRMC,093610.600,A,6228.1555,N,00614.2227,E,0.00,168.02,050516,,,A*63

$GPGGA,093610.800,6228.1555,N,00614.2227,E,1,10,1.03,14.5,M,43.3,M,,*52
$GPRMC,093610.800,A,6228.1555,N,00614.2227,E,0.00,0.00,050516,,,A*60

$GPGGA,093611.000,6228.1555,N,00614.2227,E,1,10,1.03,14.5,M,43.3,M,,*5B
$GPRMC,093611.000,A,6228.1555,N,00614.2227,E,0.01,8.73,050516,,,A*64

$GPGGA,093611.200,6228.1555,N,00614.2227,E,1,10,1.03,14.5,M,43.3,M,,*59
$GPRMC,093611.200,A,6228.1555,N,00614.2227,E,0.01,227.30,050516,,,A*6E

$GPGGA,093611.400,6228.1555,N,00614.2227,E,1,10,1.03,14.5,M,43.3,M,,*5F
$GPRMC,093611.400,A,6228.1555,N,00614.2227,E,0.01,175.76,050516,,,A*6E

$GPGGA,093611.600,6228.1555,N,00614.2227,E,1,10,1.03,14.5,M,43.3,M,,*5D
$GPRMC,093611.600,A,6228.1555,N,00614.2227,E,0.01,57.10,050516,,,A*5D

$GPGGA,093611.800,6228.1555,N,00614.2227,E,1,10,1.03,14.5,M,43.3,M,,*53
$GPRMC,093611.800,A,6228.1555,N,00614.2227,E,0.00,172.27,050516,,,A*60

$GPGGA,093612.000,6228.1555,N,00614.2227,E,1,10,1.03,14.5,M,43.3,M,,*58
$GPRMC,093612.000,A,6228.1555,N,00614.2227,E,0.01,331.29,050516,,,A*61

$GPGGA,093612.200,6228.1555,N,00614.2227,E,1,10,1.03,14.5,M,43.3,M,,*5A
$GPRMC,093612.200,A,6228.1555,N,00614.2227,E,0.01,169.58,050516,,,A*6A

$GPGGA,093612.400,6228.1555,N,00614.2227,E,1,10,1.03,14.5,M,43.3,M,,*5C
$GPRMC,093612.400,A,6228.1555,N,00614.2227,E,0.01,20.29,050516,,,A*56

$GPGGA,093612.600,6228.1555,N,00614.2227,E,1,10,1.03,14.5,M,43.3,M,,*5E
$GPRMC,093612.600,A,6228.1555,N,00614.2227,E,0.00,266.10,050516,,,A*6F

$GPGGA,093612.800,6228.1555,N,00614.2227,E,1,10,1.03,14.5,M,43.3,M,,*50
$GPRMC,093612.800,A,6228.1555,N,00614.2227,E,0.01,52.67,050516,,,A*55

$GPGGA,093613.000,6228.1555,N,00614.2227,E,1,10,1.03,14.5,M,43.3,M,,*59
$GPRMC,093613.000,A,6228.1555,N,00614.2227,E,0.01,143.19,050516,,,A*64

$GPGGA,093613.200,6228.1555,N,00614.2227,E,1,10,1.03,14.5,M,43.3,M,,*5B
$GPRMC,093613.200,A,6228.1555,N,00614.2227,E,0.00,325.55,050516,,,A*6D

$GPGGA,093613.400,6228.1555,N,00614.2227,E,1,10,1.03,14.5,M,43.3,M,,*5D
$GPRMC,093613.400,A,6228.1555,N,00614.2227,E,0.01,259.40,050516,,,A*64

$GPGGA,093613.600,6228.1555,N,00614.2227,E,1,10,1.03,14.5,M,43.3,M,,*5F
$GPRMC,093613.600,A,6228.1555,N,00614.2227,E,0.00,5.38,050516,,,A*63

$GPGGA,093613.800,6228.1555,N,00614.2227,E,1,10,1.03,14.5,M,43.3,M,,*51
$GPRMC,093613.800,A,6228.1555,N,00614.2227,E,0.01,68.05,050516,,,A*59

$GPGGA,093614.000,6228.1555,N,00614.2227,E,1,10,1.03,14.5,M,43.3,M,,*5E
$GPRMC,093614.000,A,6228.1555,N,00614.2227,E,0.00,210.67,050516,,,A*6E

$GPGGA,093614.200,6228.1555,N,00614.2227,E,1,10,1.03,14.5,M,43.3,M,,*5C
$GPRMC,093614.200,A,6228.1555,N,00614.2227,E,0.00,32.25,050516,,,A*58

$GPGGA,093614.400,6228.1555,N,00614.2227,E,1,10,1.03,14.5,M,43.3,M,,*5A
$GPRMC,093614.400,A,6228.1555,N,00614.2227,E,0.01,51.96,050516,,,A*52

$GPGGA,093614.600,6228.1555,N,00614.2227,E,1,10,1.03,14.5,M,43.3,M,,*58
$GPRMC,093614.600,A,6228.1555,N,00614.2227,E,0.01,301.61,050516,,,A*6E

$GPGGA,093614.800,6228.1555,N,00614.2227,E,1,10,1.03,14.5,M,43.3,M,,*56
$GPRMC,093614.800,A,6228.1555,N,00614.2227,E,0.01,174.45,050516,,,A*66

$GPGGA,093615.000,6228.1555,N,00614.2227,E,1,10,1.03,14.5,M,43.3,M,,*5F
$GPRMC,093615.000,A,6228.1555,N,00614.2227,E,0.01,275.41,050516,,,A*69

$GPGGA,093615.200,6228.1555,N,00614.2227,E,1,10,1.03,14.5,M,43.3,M,,*5D
$GPRMC,093615.200,A,6228.1555,N,00614.2227,E,0.01,88.02,050516,,,A*5C

$GPGGA,093615.400,6228.1555,N,00614.2227,E,1,10,1.03,14.5,M,43.3,M,,*5B
$GPRMC,093615.400,A,6228.1555,N,00614.2227,E,0.00,76.63,050516,,,A*5D

$GPGGA,093615.600,6228.1555,N,00614.2227,E,1,10,1.03,14.5,M,43.3,M,,*59
$GPRMC,093615.600,A,6228.1555,N,00614.2227,E,0.01,181.93,050516,,,A*68

$GPGGA,093615.800,6228.1555,N,00614.2227,E,1,10,1.03,14.5,M,43.3,M,,*57
$GPRMC,093615.800,A,6228.1555,N,00614.2227,E,0.00,268.00,050516,,,A*69

$GPGGA,093616.000,6228.1555,N,00614.2227,E,1,10,1.03,14.5,M,43.3,M,,*5C
$GPRMC,093616.000,A,6228.1555,N,00614.2227,E,0.01,292.84,050516,,,A*6A

$GPGGA,093616.200,6228.1555,N,00614.2227,E,1,10,1.03,14.5,M,43.3,M,,*5E
$GPRMC,093616.200,A,6228.1555,N,00614.2227,E,0.01,163.11,050516,,,A*69

$GPGGA,093616.400,6228.1555,N,00614.2227,E,1,10,1.03,14.5,M,43.3,M,,*58
$GPRMC,093616.400,A,6228.1555,N,00614.2227,E,0.01,342.50,050516,,,A*6B

$GPGGA,093616.600,6228.1555,N,00614.2227,E,1,10,1.03,14.5,M,43.3,M,,*5A
$GPRMC,093616.600,A,6228.1555,N,00614.2227,E,0.01,98.15,050516,,,A*5C

$GPGGA,093616.800,6228.1555,N,00614.2227,E,1,10,1.03,14.5,M,43.3,M,,*54
$GPRMC,093616.800,A,6228.1555,N,00614.2227,E,0.01,292.84,050516,,,A*62

$GPGGA,093617.000,6228.1555,N,00614.2227,E,1,10,1.03,14.5,M,43.3,M,,*5D
$GPRMC,093617.000,A,6228.1555,N,00614.2227,E,0.01,77.16,050516,,,A*59

$GPGGA,093617.200,6228.1555,N,00614.2227,E,1,10,1.03,14.5,M,43.3,M,,*5F
$GPRMC,093617.200,A,6228.1555,N,00614.2227,E,0.00,52.33,050516,,,A*5A

$GPGGA,093617.400,6228.1555,N,00614.2227,E,1,10,1.03,14.5,M,43.3,M,,*59
$GPRMC,093617.400,A,6228.1555,N,00614.2227,E,0.01,206.31,050516,,,A*6C

$GPGGA,093617.600,6228.1555,N,00614.2227,E,1,10,1.03,14.5,M,43.3,M,,*5B
$GPRMC,093617.600,A,6228.1555,N,00614.2227,E,0.01,6.44,050516,,,A*6E

$GPGGA,093617.800,6228.1555,N,00614.2227,E,1,10,1.03,14.5,M,43.3,M,,*55
$GPRMC,093617.800,A,6228.1555,N,00614.2227,E,0.01,76.67,050516,,,A*56

$GPGGA,093618.000,6228.1555,N,00614.2227,E,1,10,1.03,14.5,M,43.3,M,,*52
$GPRMC,093618.000,A,6228.1555,N,00614.2227,E,0.00,20.93,050516,,,A*58

$GPGGA,093618.200,6228.1555,N,00614.2227,E,1,10,1.03,14.5,M,43.3,M,,*50
$GPRMC,093618.200,A,6228.1555,N,00614.2227,E,0.01,273.98,050516,,,A*64

$GPGGA,093618.400,6228.1555,N,00614.2227,E,1,10,1.03,14.5,M,43.3,M,,*56
$GPRMC,093618.400,A,6228.1555,N,00614.2227,E,0.00,46.75,050516,,,A*54

$GPGGA,093618.600,6228.1555,N,00614.2227,E,1,10,1.03,14.5,M,43.3,M,,*54
$GPRMC,093618.600,A,6228.1555,N,00614.2227,E,0.00,47.94,050516,,,A*58

$GPGGA,093618.800,6228.1555,N,00614.2227,E,1,10,1.03,14.5,M,43.3,M,,*5A
$GPRMC,093618.800,A,6228.1555,N,00614.2227,E,0.01,159.78,050516,,,A*6B

$GPGGA,093619.000,6228.1555,N,00614.2227,E,1,10,1.03,14.5,M,43.3,M,,*53
$GPRMC,093619.000,A,6228.1555,N,00614.2227,E,0.00,220.42,050516,,,A*67

$GPGGA,093619.200,6228.1555,N,00614.2227,E,1,10,1.03,14.5,M,43.3,M,,*51
$GPRMC,093619.200,A,6228.1555,N,00614.2227,E,0.01,355.75,050516,,,A*63

$GPGGA,093619.400,6228.1555,N,00614.2227,E,1,10,1.03,14.5,M,43.3,M,,*57
$GPRMC,093619.400,A,6228.1555,N,00614.2227,E,0.01,105.13,050516,,,A*62

$GPGGA,093619.600,6228.1555,N,00614.2227,E,1,10,1.03,14.5,M,43.3,M,,*55
$GPRMC,093619.600,A,6228.1555,N,00614.2227,E,0.01,154.49,050516,,,A*6B

$GPGGA,093619.800,6228.1555,N,00614.2227,E,1,10,1.03,14.5,M,43.3,M,,*5B
$GPRMC,093619.800,A,6228.1555,N,00614.2227,E,0.01,314.71,050516,,,A*68

$GPGGA,093620.000,6228.1555,N,00614.2227,E,1,10,1.03,14.5,M,43.3,M,,*59
$GPRMC,093620.000,A,6228.1555,N,00614.2227,E,0.01,119.96,050516,,,A*6C

$GPGGA,093620.200,6228.1555,N,00614.2227,E,1,10,1.03,14.5,M,43.3,M,,*5B
$GPRMC,093620.200,A,6228.1555,N,00614.2227,E,0.01,222.08,050516,,,A*62

$GPGGA,093620.400,6228.1555,N,00614.2227,E,1,10,1.03,14.5,M,43.3,M,,*5D
$GPRMC,093620.400,A,6228.1555,N,00614.2227,E,0.01,2.24,050516,,,A*6A

$GPGGA,093620.600,6228.1555,N,00614.2227,E,1,10,1.03,14.5,M,43.3,M,,*5F
$GPRMC,093620.600,A,6228.1555,N,00614.2227,E,0.01,66.75,050516,,,A*5E

$GPGGA,093620.800,6228.1555,N,00614.2227,E,1,10,1.03,14.5,M,43.3,M,,*51
$GPRMC,093620.800,A,6228.1555,N,00614.2227,E,0.01,128.49,050516,,,A*64

$GPGGA,093621.000,6228.1555,N,00614.2227,E,1,10,1.03,14.5,M,43.3,M,,*58
$GPRMC,093621.000,A,6228.1555,N,00614.2227,E,0.01,76.08,050516,,,A*52

$GPGGA,093621.200,6228.1555,N,00614.2227,E,1,10,1.03,14.5,M,43.3,M,,*5A
$GPRMC,093621.200,A,6228.1555,N,00614.2227,E,0.00,71.52,050516,,,A*59

$GPGGA,093621.400,6228.1555,N,00614.2227,E,1,10,1.03,14.5,M,43.3,M,,*5C
$GPRMC,093621.400,A,6228.1555,N,00614.2227,E,0.00,74.68,050516,,,A*53

$GPGGA,093621.600,6228.1555,N,00614.2227,E,1,10,1.03,14.5,M,43.3,M,,*5E
$GPRMC,093621.600,A,6228.1555,N,00614.2227,E,0.00,0.00,050516,,,A*6C

$GPGGA,093621.800,6228.1555,N,00614.2227,E,1,10,1.03,14.5,M,43.3,M,,*50
$GPRMC,093621.800,A,6228.1555,N,00614.2227,E,0.00,0.00,050516,,,A*62

$GPGGA,093622.000,6228.1555,N,00614.2227,E,1,10,1.03,14.5,M,43.3,M,,*5B
$GPRMC,093622.000,A,6228.1555,N,00614.2227,E,0.00,0.00,050516,,,A*69

$GPGGA,093622.200,6228.1555,N,00614.2227,E,1,10,1.03,14.5,M,43.3,M,,*59
$GPRMC,093622.200,A,6228.1555,N,00614.2227,E,0.00,0.00,050516,,,A*6B

$GPGGA,093622.400,6228.1555,N,00614.2227,E,1,10,1.03,14.5,M,43.3,M,,*5F
$GPRMC,093622.400,A,6228.1555,N,00614.2227,E,0.00,38.31,050516,,,A*54

$GPGGA,093622.600,6228.1555,N,00614.2227,E,1,10,1.03,14.5,M,43.3,M,,*5D
$GPRMC,093622.600,A,6228.1555,N,00614.2227,E,0.00,45.03,050516,,,A*5D

$GPGGA,093622.800,6228.1555,N,00614.2227,E,1,10,1.03,14.5,M,43.3,M,,*53
$GPRMC,093622.800,A,6228.1555,N,00614.2227,E,0.01,28.16,050516,,,A*5D

$GPGGA,093623.000,6228.1555,N,00614.2227,E,1,09,0.99,14.5,M,43.3,M,,*50
$GPRMC,093623.000,A,6228.1555,N,00614.2227,E,0.02,86.28,050516,,,A*5E

$GPGGA,093623.200,6228.1555,N,00614.2227,E,1,10,1.03,14.5,M,43.3,M,,*58
$GPRMC,093623.200,A,6228.1555,N,00614.2227,E,0.01,93.90,050516,,,A*58

$GPGGA,093623.400,6228.1555,N,00614.2227,E,1,10,1.03,14.5,M,43.3,M,,*5E
$GPRMC,093623.400,A,6228.1555,N,00614.2227,E,0.01,78.81,050516,,,A*5B

$GPGGA,093623.600,6228.1556,N,00614.2227,E,1,10,1.03,14.5,M,43.3,M,,*5F
$GPRMC,093623.600,A,6228.1556,N,00614.2227,E,0.02,67.77,050516,,,A*5E

$GPGGA,093623.800,6228.1556,N,00614.2227,E,1,10,1.03,14.5,M,43.3,M,,*51
$GPRMC,093623.800,A,6228.1556,N,00614.2227,E,0.02,57.60,050516,,,A*55

$GPGGA,093624.000,6228.1556,N,00614.2227,E,1,10,1.03,14.5,M,43.3,M,,*5E
$GPRMC,093624.000,A,6228.1556,N,00614.2227,E,0.01,52.32,050516,,,A*5B

$GPGGA,093624.200,6228.1556,N,00614.2227,E,1,10,1.03,14.5,M,43.3,M,,*5C
$GPRMC,093624.200,A,6228.1556,N,00614.2227,E,0.01,52.36,050516,,,A*5D

$GPGGA,093624.400,6228.1556,N,00614.2227,E,1,10,1.03,14.5,M,43.3,M,,*5A
$GPRMC,093624.400,A,6228.1556,N,00614.2227,E,0.01,36.88,050516,,,A*5C

$GPGGA,093624.600,6228.1556,N,00614.2227,E,1,10,1.03,14.5,M,43.3,M,,*58
$GPRMC,093624.600,A,6228.1556,N,00614.2227,E,0.01,69.05,050516,,,A*51

$GPGGA,093624.800,6228.1556,N,00614.2227,E,1,10,1.03,14.5,M,43.3,M,,*56
$GPRMC,093624.800,A,6228.1556,N,00614.2227,E,0.01,46.82,050516,,,A*5D

$GPGGA,093625.000,6228.1556,N,00614.2227,E,1,10,1.03,14.5,M,43.3,M,,*5F
$GPRMC,093625.000,A,6228.1556,N,00614.2227,E,0.00,350.56,050516,,,A*68

$GPGGA,093625.200,6228.1556,N,00614.2227,E,1,10,1.03,14.5,M,43.3,M,,*5D
$GPRMC,093625.200,A,6228.1556,N,00614.2227,E,0.00,327.36,050516,,,A*6C

$GPGGA,093625.400,6228.1556,N,00614.2227,E,1,10,1.03,14.5,M,43.3,M,,*5B
$GPRMC,093625.400,A,6228.1556,N,00614.2227,E,0.00,298.38,050516,,,A*61

$GPGGA,093625.600,6228.1556,N,00614.2227,E,1,10,1.03,14.5,M,43.3,M,,*59
$GPRMC,093625.600,A,6228.1556,N,00614.2227,E,0.00,280.57,050516,,,A*63

$GPGGA,093625.800,6228.1556,N,00614.2227,E,1,10,1.03,14.5,M,43.3,M,,*57
$GPRMC,093625.800,A,6228.1556,N,00614.2227,E,0.00,46.55,050516,,,A*57

$GPGGA,093626.000,6228.1556,N,00614.2227,E,1,10,1.03,14.5,M,43.3,M,,*5C
$GPRMC,093626.000,A,6228.1556,N,00614.2227,E,0.01,319.69,050516,,,A*6B

$GPGGA,093626.200,6228.1556,N,00614.2227,E,1,10,1.03,14.5,M,43.3,M,,*5E
$GPRMC,093626.200,A,6228.1556,N,00614.2227,E,0.00,334.64,050516,,,A*6A

$GPGGA,093626.400,6228.1556,N,00614.2227,E,1,10,1.03,14.5,M,43.3,M,,*58
$GPRMC,093626.400,A,6228.1556,N,00614.2227,E,0.01,10.25,050516,,,A*5D

$GPGGA,093626.600,6228.1556,N,00614.2227,E,1,10,1.03,14.5,M,43.3,M,,*5A
$GPRMC,093626.600,A,6228.1556,N,00614.2227,E,0.01,333.89,050516,,,A*6B

$GPGGA,093626.800,6228.1556,N,00614.2227,E,1,10,1.03,14.5,M,43.3,M,,*54
$GPRMC,093626.800,A,6228.1556,N,00614.2227,E,0.02,303.15,050516,,,A*60

$GPGGA,093627.000,6228.1556,N,00614.2227,E,1,10,1.03,14.5,M,43.3,M,,*5D
$GPRMC,093627.000,A,6228.1556,N,00614.2227,E,0.02,265.35,050516,,,A*6A

$GPGGA,093627.200,6228.1556,N,00614.2227,E,1,10,1.03,14.5,M,43.3,M,,*5F
$GPRMC,093627.200,A,6228.1556,N,00614.2227,E,0.01,244.34,050516,,,A*69

$GPGGA,093627.400,6228.1556,N,00614.2227,E,1,10,1.03,14.5,M,43.3,M,,*59
$GPRMC,093627.400,A,6228.1556,N,00614.2227,E,0.00,256.56,050516,,,A*69

$GPGGA,093627.600,6228.1556,N,00614.2227,E,1,10,1.03,14.5,M,43.3,M,,*5B
$GPRMC,093627.600,A,6228.1556,N,00614.2227,E,0.00,52.02,050516,,,A*5C

$GPGGA,093627.800,6228.1556,N,00614.2227,E,1,10,1.03,14.5,M,43.3,M,,*55
$GPRMC,093627.800,A,6228.1556,N,00614.2227,E,0.02,137.50,050516,,,A*65

$GPGGA,093628.000,6228.1556,N,00614.2227,E,1,10,1.03,14.5,M,43.3,M,,*52
$GPRMC,093628.000,A,6228.1556,N,00614.2227,E,0.01,74.49,050516,,,A*5F

$GPGGA,093628.200,6228.1556,N,00614.2227,E,1,10,1.03,14.5,M,43.3,M,,*50
$GPRMC,093628.200,A,6228.1556,N,00614.2227,E,0.01,62.45,050516,,,A*56

$GPGGA,093628.400,6228.1556,N,00614.2227,E,1,10,1.03,14.5,M,43.3,M,,*56
$GPRMC,093628.400,A,6228.1556,N,00614.2227,E,0.00,0.00,050516,,,A*64

$GPGGA,093628.600,6228.1556,N,00614.2227,E,1,10,1.03,14.5,M,43.3,M,,*54
$GPRMC,093628.600,A,6228.1556,N,00614.2227,E,0.01,4.59,050516,,,A*6F

$GPGGA,093628.800,6228.1556,N,00614.2227,E,1,10,1.03,14.5,M,43.3,M,,*5A
$GPRMC,093628.800,A,6228.1556,N,00614.2227,E,0.01,163.21,050516,,,A*6E

$GPGGA,093629.000,6228.1556,N,00614.2227,E,1,10,1.03,14.5,M,43.3,M,,*53
$GPRMC,093629.000,A,6228.1556,N,00614.2227,E,0.01,32.80,050516,,,A*59

$GPGGA,093629.200,6228.1556,N,00614.2227,E,1,10,1.03,14.5,M,43.3,M,,*51
$GPRMC,093629.200,A,6228.1556,N,00614.2227,E,0.00,267.60,050516,,,A*66

$GPGGA,093629.400,6228.1556,N,00614.2227,E,1,10,1.03,14.5,M,43.3,M,,*57
$GPRMC,093629.400,A,6228.1556,N,00614.2227,E,0.00,237.19,050516,,,A*6B

$GPGGA,093629.600,6228.1556,N,00614.2227,E,1,10,1.03,14.5,M,43.3,M,,*55
$GPRMC,093629.600,A,6228.1556,N,00614.2227,E,0.00,35.30,050516,,,A*52

$GPGGA,093629.800,6228.1556,N,00614.2227,E,1,10,1.03,14.5,M,43.3,M,,*5B
$GPRMC,093629.800,A,6228.1556,N,00614.2227,E,0.01,38.20,050516,,,A*51

$GPGGA,093630.000,6228.1556,N,00614.2227,E,1,10,1.03,14.5,M,43.3,M,,*5B
$GPRMC,093630.000,A,6228.1556,N,00614.2227,E,0.03,100.32,050516,,,A*6A

$GPGGA,093630.200,6228.1556,N,00614.2227,E,1,10,1.03,14.5,M,43.3,M,,*59
$GPRMC,093630.200,A,6228.1556,N,00614.2227,E,0.01,97.57,050516,,,A*56

$GPGGA,093630.400,6228.1556,N,00614.2227,E,1,10,1.03,14.5,M,43.3,M,,*5F
$GPRMC,093630.400,A,6228.1556,N,00614.2227,E,0.00,151.35,050516,,,A*6E

$GPGGA,093630.600,6228.1556,N,00614.2227,E,1,10,1.03,14.5,M,43.3,M,,*5D
$GPRMC,093630.600,A,6228.1556,N,00614.2227,E,0.01,200.64,050516,,,A*6E

$GPGGA,093630.800,6228.1556,N,00614.2227,E,1,10,1.03,14.5,M,43.3,M,,*53
$GPRMC,093630.800,A,6228.1556,N,00614.2227,E,0.05,239.01,050516,,,A*6D

$GPGGA,093631.000,6228.1556,N,00614.2227,E,1,10,1.03,14.5,M,43.3,M,,*5A
$GPRMC,093631.000,A,6228.1556,N,00614.2227,E,0.01,115.13,050516,,,A*6E

$GPGGA,093631.200,6228.1556,N,00614.2227,E,1,10,1.03,14.5,M,43.3,M,,*58
$GPRMC,093631.200,A,6228.1556,N,00614.2227,E,0.02,70.44,050516,,,A*5F

$GPGGA,093631.400,6228.1556,N,00614.2227,E,1,10,1.03,14.5,M,43.3,M,,*5E
$GPRMC,093631.400,A,6228.1556,N,00614.2227,E,0.06,66.02,050516,,,A*58

$GPGGA,093631.600,6228.1556,N,00614.2227,E,1,10,1.03,14.4,M,43.3,M,,*5D
$GPRMC,093631.600,A,6228.1556,N,00614.2227,E,0.04,157.76,050516,,,A*68

$GPGGA,093631.800,6228.1556,N,00614.2227,E,1,10,1.03,14.4,M,43.3,M,,*53
$GPRMC,093631.800,A,6228.1556,N,00614.2227,E,0.02,147.81,050516,,,A*69

$GPGGA,093632.000,6228.1556,N,00614.2227,E,1,10,1.03,14.4,M,43.3,M,,*58
$GPRMC,093632.000,A,6228.1556,N,00614.2227,E,0.00,309.24,050516,,,A*67

$GPGGA,093632.200,6228.1556,N,00614.2227,E,1,10,1.03,14.4,M,43.3,M,,*5A
$GPRMC,093632.200,A,6228.1556,N,00614.2227,E,0.01,160.55,050516,,,A*6F

$GPGGA,093632.400,6228.1556,N,00614.2227,E,1,10,1.03,14.4,M,43.3,M,,*5C
$GPRMC,093632.400,A,6228.1556,N,00614.2227,E,0.02,147.84,050516,,,A*63

$GPGGA,093632.600,6228.1556,N,00614.2227,E,1,10,1.03,14.4,M,43.3,M,,*5E
$GPRMC,093632.600,A,6228.1556,N,00614.2227,E,0.02,155.82,050516,,,A*64

$GPGGA,093632.800,6228.1556,N,00614.2227,E,1,10,1.03,14.4,M,43.3,M,,*50
$GPRMC,093632.800,A,6228.1556,N,00614.2227,E,0.02,86.40,050516,,,A*5B

$GPGGA,093633.000,6228.1556,N,00614.2227,E,1,10,1.03,14.4,M,43.3,M,,*59
$GPRMC,093633.000,A,6228.1556,N,00614.2227,E,0.02,6.20,050516,,,A*6C

$GPGGA,093633.200,6228.1556,N,00614.2227,E,1,10,1.03,14.4,M,43.3,M,,*5B
$GPRMC,093633.200,A,6228.1556,N,00614.2227,E,0.00,287.97,050516,,,A*6B

$GPGGA,093633.400,6228.1556,N,00614.2227,E,1,10,1.03,14.4,M,43.3,M,,*5D
$GPRMC,093633.400,A,6228.1556,N,00614.2227,E,0.00,206.01,050516,,,A*6B

$GPGGA,093633.600,6228.1556,N,00614.2227,E,1,10,1.03,14.4,M,43.3,M,,*5F
$GPRMC,093633.600,A,6228.1556,N,00614.2227,E,0.01,306.92,050516,,,A*63

$GPGGA,093633.800,6228.1556,N,00614.2227,E,1,10,1.03,14.4,M,43.3,M,,*51
$GPRMC,093633.800,A,6228.1556,N,00614.2227,E,0.01,291.56,050516,,,A*6A

$GPGGA,093634.000,6228.1556,N,00614.2227,E,1,10,1.03,14.4,M,43.3,M,,*5E
$GPRMC,093634.000,A,6228.1556,N,00614.2227,E,0.01,244.98,050516,,,A*6F

$GPGGA,093634.200,6228.1556,N,00614.2227,E,1,10,1.03,14.4,M,43.3,M,,*5C
$GPRMC,093634.200,A,6228.1556,N,00614.2227,E,0.00,0.00,050516,,,A*6F

$GPGGA,093634.400,6228.1556,N,00614.2227,E,1,10,1.03,14.4,M,43.3,M,,*5A
$GPRMC,093634.400,A,6228.1556,N,00614.2227,E,0.00,14.98,050516,,,A*5D

$GPGGA,093634.600,6228.1556,N,00614.2227,E,1,10,1.03,14.4,M,43.3,M,,*58
$GPRMC,093634.600,A,6228.1556,N,00614.2227,E,0.01,296.28,050516,,,A*6D

$GPGGA,093634.800,6228.1556,N,00614.2227,E,1,10,1.03,14.4,M,43.3,M,,*56
$GPRMC,093634.800,A,6228.1556,N,00614.2227,E,0.00,23.56,050516,,,A*57

$GPGGA,093635.000,6228.1556,N,00614.2227,E,1,10,1.03,14.4,M,43.3,M,,*5F
$GPRMC,093635.000,A,6228.1556,N,00614.2227,E,0.00,92.91,050516,,,A*5F

$GPGGA,093635.200,6228.1556,N,00614.2227,E,1,10,1.03,14.4,M,43.3,M,,*5D
$GPRMC,093635.200,A,6228.1556,N,00614.2227,E,0.00,280.14,050516,,,A*61

$GPGGA,093635.400,6228.1556,N,00614.2227,E,1,10,1.03,14.4,M,43.3,M,,*5B
$GPRMC,093635.400,A,6228.1556,N,00614.2227,E,0.01,349.58,050516,,,A*6A

$GPGGA,093635.600,6228.1556,N,00614.2227,E,1,10,1.03,14.4,M,43.3,M,,*59
$GPRMC,093635.600,A,6228.1556,N,00614.2227,E,0.02,120.00,050516,,,A*6B

$GPGGA,093635.800,6228.1556,N,00614.2227,E,1,10,1.03,14.4,M,43.3,M,,*57
$GPRMC,093635.800,A,6228.1556,N,00614.2227,E,0.01,71.16,050516,,,A*54

$GPGGA,093636.000,6228.1556,N,00614.2227,E,1,10,1.03,14.4,M,43.3,M,,*5C
$GPRMC,093636.000,A,6228.1556,N,00614.2227,E,0.01,168.83,050516,,,A*6A

$GPGGA,093636.200,6228.1556,N,00614.2227,E,1,10,1.03,14.4,M,43.3,M,,*5E
$GPRMC,093636.200,A,6228.1556,N,00614.2227,E,0.01,169.17,050516,,,A*64

$GPGGA,093636.400,6228.1556,N,00614.2227,E,1,10,1.03,14.4,M,43.3,M,,*58
$GPRMC,093636.400,A,6228.1556,N,00614.2227,E,0.03,138.95,050516,,,A*6E

$GPGGA,093636.600,6228.1556,N,00614.2227,E,1,10,1.03,14.4,M,43.3,M,,*5A
$GPRMC,093636.600,A,6228.1556,N,00614.2227,E,0.02,149.88,050516,,,A*67

$GPGGA,093636.800,6228.1556,N,00614.2227,E,1,10,0.88,14.4,M,43.3,M,,*56
$GPRMC,093636.800,A,6228.1556,N,00614.2227,E,0.06,149.88,050516,,,A*6D

$GPGGA,093637.000,6228.1555,N,00614.2227,E,1,10,1.03,14.4,M,43.3,M,,*5E
$GPRMC,093637.000,A,6228.1555,N,00614.2227,E,0.09,121.21,050516,,,A*65

$GPGGA,093637.200,6228.1555,N,00614.2228,E,1,09,1.12,14.4,M,43.3,M,,*5B
$GPRMC,093637.200,A,6228.1555,N,00614.2228,E,0.01,119.42,050516,,,A*6E

$GPGGA,093637.400,6228.1555,N,00614.2228,E,1,09,1.12,14.4,M,43.3,M,,*5D
$GPRMC,093637.400,A,6228.1555,N,00614.2228,E,0.01,339.80,050516,,,A*66

$GPGGA,093637.600,6228.1555,N,00614.2228,E,1,10,1.03,14.4,M,43.3,M,,*57
$GPRMC,093637.600,A,6228.1555,N,00614.2228,E,0.02,306.61,050516,,,A*64

$GPGGA,093637.800,6228.1555,N,00614.2227,E,1,10,1.03,14.4,M,43.3,M,,*56
$GPRMC,093637.800,A,6228.1555,N,00614.2227,E,0.05,291.90,050516,,,A*63

$GPGGA,093638.000,6228.1555,N,00614.2227,E,1,10,1.03,14.4,M,43.3,M,,*51
$GPRMC,093638.000,A,6228.1555,N,00614.2227,E,0.06,279.51,050516,,,A*6C

$GPGGA,093638.200,6228.1555,N,00614.2227,E,1,10,1.03,14.4,M,43.3,M,,*53
$GPRMC,093638.200,A,6228.1555,N,00614.2227,E,0.02,262.68,050516,,,A*6A

$GPGGA,093638.400,6228.1555,N,00614.2227,E,1,10,1.03,14.4,M,43.3,M,,*55
$GPRMC,093638.400,A,6228.1555,N,00614.2227,E,0.02,260.03,050516,,,A*63

$GPGGA,093638.600,6228.1555,N,00614.2227,E,1,10,1.03,14.4,M,43.3,M,,*57
$GPRMC,093638.600,A,6228.1555,N,00614.2227,E,0.02,5.79,050516,,,A*6D

$GPGGA,093638.800,6228.1556,N,00614.2227,E,1,10,1.03,14.4,M,43.3,M,,*5A
$GPRMC,093638.800,A,6228.1556,N,00614.2227,E,0.08,29.11,050516,,,A*5A

$GPGGA,093639.000,6228.1556,N,00614.2228,E,1,10,0.88,14.4,M,43.3,M,,*5E
$GPRMC,093639.000,A,6228.1556,N,00614.2228,E,0.14,58.63,050516,,,A*52

$GPGGA,093639.200,6228.1556,N,00614.2228,E,1,10,1.03,14.4,M,43.3,M,,*5E
$GPRMC,093639.200,A,6228.1556,N,00614.2228,E,0.02,42.00,050516,,,A*59

$GPGGA,093639.400,6228.1556,N,00614.2228,E,1,10,1.03,14.4,M,43.3,M,,*58
$GPRMC,093639.400,A,6228.1556,N,00614.2228,E,0.05,87.62,050516,,,A*55

$GPGGA,093639.600,6228.1556,N,00614.2228,E,1,10,0.89,14.4,M,43.3,M,,*59
$GPRMC,093639.600,A,6228.1556,N,00614.2228,E,0.19,121.08,050516,,,A*6B

$GPGGA,093639.800,6228.1555,N,00614.2228,E,1,10,0.88,14.4,M,43.3,M,,*55
$GPRMC,093639.800,A,6228.1555,N,00614.2228,E,0.23,143.30,050516,,,A*60

$GPGGA,093640.000,6228.1555,N,00614.2228,E,1,10,0.89,14.4,M,43.3,M,,*52
$GPRMC,093640.000,A,6228.1555,N,00614.2228,E,0.28,144.58,050516,,,A*64

$GPGGA,093640.200,6228.1555,N,00614.2228,E,1,10,0.88,14.4,M,43.3,M,,*51
$GPRMC,093640.200,A,6228.1555,N,00614.2228,E,0.25,137.77,050516,,,A*62

$GPGGA,093640.400,6228.1555,N,00614.2228,E,1,09,0.93,14.4,M,43.3,M,,*55
$GPRMC,093640.400,A,6228.1555,N,00614.2228,E,0.39,137.89,050516,,,A*68

$GPGGA,093640.600,6228.1555,N,00614.2229,E,1,10,0.88,14.4,M,43.3,M,,*54
$GPRMC,093640.600,A,6228.1555,N,00614.2229,E,0.38,149.38,050516,,,A*69

$GPGGA,093640.800,6228.1555,N,00614.2229,E,1,10,0.88,14.4,M,43.3,M,,*5A
$GPRMC,093640.800,A,6228.1555,N,00614.2229,E,0.27,155.14,050516,,,A*6A

$GPGGA,093641.000,6228.1555,N,00614.2229,E,1,10,0.89,14.4,M,43.3,M,,*52
$GPRMC,093641.000,A,6228.1555,N,00614.2229,E,0.21,169.41,050516,,,A*6A

$GPGGA,093641.200,6228.1555,N,00614.2229,E,1,10,0.88,14.4,M,43.3,M,,*51
$GPRMC,093641.200,A,6228.1555,N,00614.2229,E,0.20,168.06,050516,,,A*6B

$GPGGA,093641.400,6228.1554,N,00614.2229,E,1,10,0.89,14.4,M,43.3,M,,*57
$GPRMC,093641.400,A,6228.1554,N,00614.2229,E,0.17,170.36,050516,,,A*62

$GPGGA,093641.600,6228.1554,N,00614.2229,E,1,10,0.88,14.4,M,43.3,M,,*54
$GPRMC,093641.600,A,6228.1554,N,00614.2229,E,0.15,179.39,050516,,,A*64

$GPGGA,093641.800,6228.1554,N,00614.2229,E,1,10,0.88,14.4,M,43.3,M,,*5A
$GPRMC,093641.800,A,6228.1554,N,00614.2229,E,0.13,181.43,050516,,,A*66

$GPGGA,093642.000,6228.1554,N,00614.2229,E,1,10,0.89,14.4,M,43.3,M,,*50
$GPRMC,093642.000,A,6228.1554,N,00614.2229,E,0.07,182.02,050516,,,A*6E

$GPGGA,093642.200,6228.1554,N,00614.2229,E,1,10,0.89,14.4,M,43.3,M,,*52
$GPRMC,093642.200,A,6228.1554,N,00614.2229,E,0.04,166.98,050516,,,A*66

$GPGGA,093642.400,6228.1554,N,00614.2229,E,1,10,0.89,14.4,M,43.3,M,,*54
$GPRMC,093642.400,A,6228.1554,N,00614.2229,E,0.04,90.70,050516,,,A*5E

$GPGGA,093642.600,6228.1554,N,00614.2229,E,1,10,0.88,14.4,M,43.3,M,,*57
$GPRMC,093642.600,A,6228.1554,N,00614.2229,E,0.08,114.15,050516,,,A*6E

$GPGGA,093642.800,6228.1554,N,00614.2230,E,1,10,0.88,14.4,M,43.3,M,,*51
$GPRMC,093642.800,A,6228.1554,N,00614.2230,E,0.08,17.16,050516,,,A*59

$GPGGA,093643.000,6228.1554,N,00614.2230,E,1,10,1.03,14.4,M,43.3,M,,*5A
$GPRMC,093643.000,A,6228.1554,N,00614.2230,E,0.05,339.08,050516,,,A*6D

$GPGGA,093643.200,6228.1554,N,00614.2230,E,1,10,1.03,14.4,M,43.3,M,,*58
$GPRMC,093643.200,A,6228.1554,N,00614.2230,E,0.13,175.46,050516,,,A*68

$GPGGA,093643.400,6228.1554,N,00614.2230,E,1,10,1.03,14.4,M,43.3,M,,*5E
$GPRMC,093643.400,A,6228.1554,N,00614.2230,E,0.06,70.98,050516,,,A*5D

$GPGGA,093643.600,6228.1554,N,00614.2230,E,1,10,1.03,14.4,M,43.3,M,,*5C
$GPRMC,093643.600,A,6228.1554,N,00614.2230,E,0.06,52.39,050516,,,A*54

$GPGGA,093643.800,6228.1554,N,00614.2230,E,1,10,1.03,14.4,M,43.3,M,,*52
$GPRMC,093643.800,A,6228.1554,N,00614.2230,E,0.10,136.53,050516,,,A*62

$GPGGA,093644.000,6228.1554,N,00614.2230,E,1,10,1.03,14.4,M,43.3,M,,*5D
$GPRMC,093644.000,A,6228.1554,N,00614.2230,E,0.03,160.46,050516,,,A*68

$GPGGA,093644.200,6228.1554,N,00614.2230,E,1,10,1.03,14.4,M,43.3,M,,*5F
$GPRMC,093644.200,A,6228.1554,N,00614.2230,E,0.02,213.59,050516,,,A*62

$GPGGA,093644.400,6228.1554,N,00614.2230,E,1,10,1.03,14.4,M,43.3,M,,*59
$GPRMC,093644.400,A,6228.1554,N,00614.2230,E,0.09,317.12,050516,,,A*65

$GPGGA,093644.600,6228.1554,N,00614.2230,E,1,10,1.03,14.4,M,43.3,M,,*5B
$GPRMC,093644.600,A,6228.1554,N,00614.2230,E,0.12,346.32,050516,,,A*6B

$GPGGA,093644.800,6228.1554,N,00614.2230,E,1,10,1.03,14.4,M,43.3,M,,*55
$GPRMC,093644.800,A,6228.1554,N,00614.2230,E,1.30,293.70,050516,,,A*6B

$GPGGA,093645.000,6228.1555,N,00614.2228,E,1,10,0.88,14.4,M,43.3,M,,*56
$GPRMC,093645.000,A,6228.1555,N,00614.2228,E,2.51,284.21,050516,,,A*6C

$GPGGA,093645.200,6228.1555,N,00614.2226,E,1,10,0.88,14.4,M,43.3,M,,*5A
$GPRMC,093645.200,A,6228.1555,N,00614.2226,E,2.11,267.42,050516,,,A*6C

$GPGGA,093645.400,6228.1555,N,00614.2225,E,1,10,0.89,14.4,M,43.3,M,,*5E
$GPRMC,093645.400,A,6228.1555,N,00614.2225,E,1.17,256.17,050516,,,A*6E

$GPGGA,093645.600,6228.1554,N,00614.2225,E,1,10,0.88,14.3,M,43.3,M,,*5B
$GPRMC,093645.600,A,6228.1554,N,00614.2225,E,0.98,257.42,050516,,,A*6A

$GPGGA,093645.800,6228.1554,N,00614.2225,E,1,10,0.88,14.3,M,43.3,M,,*55
$GPRMC,093645.800,A,6228.1554,N,00614.2225,E,0.80,253.28,050516,,,A*65

$GPGGA,093646.000,6228.1554,N,00614.2225,E,1,10,0.88,14.3,M,43.3,M,,*5E
$GPRMC,093646.000,A,6228.1554,N,00614.2225,E,0.68,253.15,050516,,,A*66

$GPGGA,093646.200,6228.1555,N,00614.2225,E,1,10,0.89,14.3,M,43.3,M,,*5C
$GPRMC,093646.200,A,6228.1555,N,00614.2225,E,0.66,253.31,050516,,,A*6D

$GPGGA,093646.400,6228.1555,N,00614.2225,E,1,10,0.88,14.2,M,43.3,M,,*5A
$GPRMC,093646.400,A,6228.1555,N,00614.2225,E,0.61,258.83,050516,,,A*6E

$GPGGA,093646.600,6228.1555,N,00614.2225,E,1,10,0.88,14.2,M,43.3,M,,*58
$GPRMC,093646.600,A,6228.1555,N,00614.2225,E,0.57,259.43,050516,,,A*64

$GPGGA,093646.800,6228.1555,N,00614.2225,E,1,10,0.88,14.2,M,43.3,M,,*56
$GPRMC,093646.800,A,6228.1555,N,00614.2225,E,0.55,261.05,050516,,,A*61

$GPGGA,093647.000,6228.1555,N,00614.2225,E,1,10,0.88,14.2,M,43.3,M,,*5F
$GPRMC,093647.000,A,6228.1555,N,00614.2225,E,0.55,261.49,050516,,,A*60

$GPGGA,093647.200,6228.1556,N,00614.2225,E,1,10,0.88,14.2,M,43.3,M,,*5E
$GPRMC,093647.200,A,6228.1556,N,00614.2225,E,0.50,263.15,050516,,,A*6F

$GPGGA,093647.400,6228.1556,N,00614.2225,E,1,10,0.88,14.1,M,43.3,M,,*5B
$GPRMC,093647.400,A,6228.1556,N,00614.2225,E,0.44,265.79,050516,,,A*60

$GPGGA,093647.600,6228.1556,N,00614.2225,E,1,10,0.88,14.1,M,43.3,M,,*59
$GPRMC,093647.600,A,6228.1556,N,00614.2225,E,0.40,261.41,050516,,,A*69

$GPGGA,093647.800,6228.1556,N,00614.2226,E,1,10,0.88,14.1,M,43.3,M,,*54
$GPRMC,093647.800,A,6228.1556,N,00614.2226,E,0.37,251.52,050516,,,A*65

$GPGGA,093648.000,6228.1557,N,00614.2226,E,1,10,0.88,14.1,M,43.3,M,,*52
$GPRMC,093648.000,A,6228.1557,N,00614.2226,E,0.30,255.11,050516,,,A*67

$GPGGA,093648.200,6228.1557,N,00614.2226,E,1,10,0.88,14.1,M,43.3,M,,*50
$GPRMC,093648.200,A,6228.1557,N,00614.2226,E,0.24,271.29,050516,,,A*6D

$GPGGA,093648.400,6228.1557,N,00614.2227,E,1,10,0.88,14.0,M,43.3,M,,*56
$GPRMC,093648.400,A,6228.1557,N,00614.2227,E,0.18,275.05,050516,,,A*6F

$GPGGA,093648.600,6228.1558,N,00614.2227,E,1,10,0.88,14.0,M,43.3,M,,*5B
$GPRMC,093648.600,A,6228.1558,N,00614.2227,E,0.15,264.09,050516,,,A*63

$GPGGA,093648.800,6228.1558,N,00614.2228,E,1,10,0.88,14.0,M,43.3,M,,*5A
$GPRMC,093648.800,A,6228.1558,N,00614.2228,E,0.09,263.01,050516,,,A*60

$GPGGA,093649.000,6228.1558,N,00614.2228,E,1,10,0.88,14.0,M,43.3,M,,*53
$GPRMC,093649.000,A,6228.1558,N,00614.2228,E,0.06,255.75,050516,,,A*60

$GPGGA,093649.200,6228.1558,N,00614.2228,E,1,10,0.88,13.9,M,43.3,M,,*5F
$GPRMC,093649.200,A,6228.1558,N,00614.2228,E,0.07,230.28,050516,,,A*68

$GPGGA,093649.400,6228.1558,N,00614.2229,E,1,10,0.88,13.9,M,43.3,M,,*58
$GPRMC,093649.400,A,6228.1558,N,00614.2229,E,0.01,121.75,050516,,,A*62

$GPGGA,093649.600,6228.1558,N,00614.2229,E,1,10,0.88,13.9,M,43.3,M,,*5A
$GPRMC,093649.600,A,6228.1558,N,00614.2229,E,0.04,150.96,050516,,,A*6E

$GPGGA,093649.800,6228.1559,N,00614.2230,E,1,10,0.88,13.9,M,43.3,M,,*5D
$GPRMC,093649.800,A,6228.1559,N,00614.2230,E,0.13,117.86,050516,,,A*6D

$GPGGA,093650.000,6228.1559,N,00614.2230,E,1,10,0.88,13.9,M,43.3,M,,*5D
$GPRMC,093650.000,A,6228.1559,N,00614.2230,E,0.45,143.45,050516,,,A*60

$GPGGA,093650.200,6228.1558,N,00614.2230,E,1,10,0.88,13.9,M,43.3,M,,*5E
$GPRMC,093650.200,A,6228.1558,N,00614.2230,E,0.70,81.79,050516,,,A*55

$GPGGA,093650.400,6228.1559,N,00614.2231,E,1,10,0.88,13.9,M,43.3,M,,*58
$GPRMC,093650.400,A,6228.1559,N,00614.2231,E,1.20,66.94,050516,,,A*5D

$GPGGA,093650.600,6228.1559,N,00614.2233,E,1,10,0.89,13.9,M,43.3,M,,*59
$GPRMC,093650.600,A,6228.1559,N,00614.2233,E,0.76,95.35,050516,,,A*58

$GPGGA,093650.800,6228.1560,N,00614.2234,E,1,10,0.88,13.9,M,43.3,M,,*5B
$GPRMC,093650.800,A,6228.1560,N,00614.2234,E,0.91,68.24,050516,,,A*50

$GPGGA,093651.000,6228.1560,N,00614.2235,E,1,10,0.88,13.9,M,43.3,M,,*53
$GPRMC,093651.000,A,6228.1560,N,00614.2235,E,1.10,60.72,050516,,,A*5B

$GPGGA,093651.200,6228.1561,N,00614.2237,E,1,10,0.88,13.9,M,43.3,M,,*52
$GPRMC,093651.200,A,6228.1561,N,00614.2237,E,1.23,75.00,050516,,,A*5B

$GPGGA,093651.400,6228.1561,N,00614.2239,E,1,10,0.88,14.0,M,43.3,M,,*54
$GPRMC,093651.400,A,6228.1561,N,00614.2239,E,0.95,89.19,050516,,,A*54

$GPGGA,093651.600,6228.1561,N,00614.2241,E,1,10,0.88,14.0,M,43.3,M,,*59
$GPRMC,093651.600,A,6228.1561,N,00614.2241,E,0.69,78.57,050516,,,A*5E

$GPGGA,093651.800,6228.1561,N,00614.2242,E,1,10,0.88,14.0,M,43.3,M,,*54
$GPRMC,093651.800,A,6228.1561,N,00614.2242,E,0.54,135.85,050516,,,A*6A

$GPGGA,093652.000,6228.1561,N,00614.2242,E,1,10,0.88,13.9,M,43.3,M,,*51
$GPRMC,093652.000,A,6228.1561,N,00614.2242,E,0.22,131.72,050516,,,A*6C

$GPGGA,093652.200,6228.1561,N,00614.2243,E,1,10,0.88,13.9,M,43.3,M,,*52
$GPRMC,093652.200,A,6228.1561,N,00614.2243,E,0.24,324.74,050516,,,A*69

$GPGGA,093652.400,6228.1561,N,00614.2243,E,1,10,0.88,13.9,M,43.3,M,,*54
$GPRMC,093652.400,A,6228.1561,N,00614.2243,E,0.35,302.48,050516,,,A*64

$GPGGA,093652.600,6228.1561,N,00614.2242,E,1,10,0.88,13.9,M,43.3,M,,*57
$GPRMC,093652.600,A,6228.1561,N,00614.2242,E,0.37,255.77,050516,,,A*6A

$GPGGA,093652.800,6228.1561,N,00614.2242,E,1,10,0.88,13.9,M,43.3,M,,*59
$GPRMC,093652.800,A,6228.1561,N,00614.2242,E,0.26,208.38,050516,,,A*67

$GPGGA,093653.000,6228.1561,N,00614.2242,E,1,10,0.88,13.8,M,43.3,M,,*51
$GPRMC,093653.000,A,6228.1561,N,00614.2242,E,0.11,156.88,050516,,,A*69

$GPGGA,093653.200,6228.1562,N,00614.2243,E,1,10,0.88,13.8,M,43.3,M,,*51
$GPRMC,093653.200,A,6228.1562,N,00614.2243,E,0.31,45.05,050516,,,A*5D

$GPGGA,093653.400,6228.1562,N,00614.2244,E,1,10,0.88,13.7,M,43.3,M,,*5F
$GPRMC,093653.400,A,6228.1562,N,00614.2244,E,0.71,29.88,050516,,,A*57

$GPGGA,093653.600,6228.1563,N,00614.2245,E,1,10,0.88,13.6,M,43.3,M,,*5C
$GPRMC,093653.600,A,6228.1563,N,00614.2245,E,1.74,23.84,050516,,,A*57

$GPGGA,093653.800,6228.1563,N,00614.2245,E,1,10,0.88,13.5,M,43.3,M,,*51
$GPRMC,093653.800,A,6228.1563,N,00614.2245,E,1.19,355.20,050516,,,A*6E

$GPGGA,093654.000,6228.1563,N,00614.2245,E,1,10,1.03,13.5,M,43.3,M,,*5C
$GPRMC,093654.000,A,6228.1563,N,00614.2245,E,0.52,303.18,050516,,,A*67

$GPGGA,093654.200,6228.1564,N,00614.2245,E,1,10,0.88,13.5,M,43.3,M,,*5B
$GPRMC,093654.200,A,6228.1564,N,00614.2245,E,1.07,351.16,050516,,,A*6A

$GPGGA,093654.400,6228.1564,N,00614.2244,E,1,10,1.03,13.4,M,43.3,M,,*5F
$GPRMC,093654.400,A,6228.1564,N,00614.2244,E,1.15,306.31,050516,,,A*69

$GPGGA,093654.600,6228.1565,N,00614.2244,E,1,10,0.88,13.4,M,43.3,M,,*5E
$GPRMC,093654.600,A,6228.1565,N,00614.2244,E,0.79,336.60,050516,,,A*66

$GPGGA,093654.800,6228.1565,N,00614.2244,E,1,10,0.88,13.4,M,43.3,M,,*50
$GPRMC,093654.800,A,6228.1565,N,00614.2244,E,1.03,333.51,050516,,,A*63

$GPGGA,093655.000,6228.1565,N,00614.2243,E,1,10,0.88,13.3,M,43.3,M,,*59
$GPRMC,093655.000,A,6228.1565,N,00614.2243,E,0.26,316.11,050516,,,A*68

$GPGGA,093655.200,6228.1566,N,00614.2243,E,1,10,0.88,13.4,M,43.3,M,,*5F
$GPRMC,093655.200,A,6228.1566,N,00614.2243,E,0.60,340.90,050516,,,A*61

$GPGGA,093655.400,6228.1566,N,00614.2243,E,1,10,0.88,13.3,M,43.3,M,,*5E
$GPRMC,093655.400,A,6228.1566,N,00614.2243,E,0.66,327.26,050516,,,A*6D

$GPGGA,093655.600,6228.1566,N,00614.2242,E,1,10,0.88,13.3,M,43.3,M,,*5D
$GPRMC,093655.600,A,6228.1566,N,00614.2242,E,0.56,334.81,050516,,,A*62

$GPGGA,093655.800,6228.1567,N,00614.2242,E,1,10,0.88,13.3,M,43.3,M,,*52
$GPRMC,093655.800,A,6228.1567,N,00614.2242,E,0.62,350.12,050516,,,A*62

$GPGGA,093656.000,6228.1567,N,00614.2242,E,1,10,1.02,13.2,M,43.3,M,,*5B
$GPRMC,093656.000,A,6228.1567,N,00614.2242,E,0.78,349.67,050516,,,A*68

$GPGGA,093656.200,6228.1567,N,00614.2242,E,1,10,1.03,13.2,M,43.3,M,,*58
$GPRMC,093656.200,A,6228.1567,N,00614.2242,E,0.53,343.46,050516,,,A*6A

$GPGGA,093656.400,6228.1567,N,00614.2242,E,1,10,0.88,13.2,M,43.3,M,,*5C
$GPRMC,093656.400,A,6228.1567,N,00614.2242,E,0.44,327.42,050516,,,A*6C

$GPGGA,093656.600,6228.1567,N,00614.2242,E,1,10,0.88,13.2,M,43.3,M,,*5E
$GPRMC,093656.600,A,6228.1567,N,00614.2242,E,0.41,332.95,050516,,,A*65

$GPGGA,093656.800,6228.1568,N,00614.2242,E,1,10,0.88,13.2,M,43.3,M,,*5F
$GPRMC,093656.800,A,6228.1568,N,00614.2242,E,0.42,323.96,050516,,,A*64

$GPGGA,093657.000,6228.1568,N,00614.2242,E,1,10,0.88,13.1,M,43.3,M,,*55
$GPRMC,093657.000,A,6228.1568,N,00614.2242,E,0.49,317.10,050516,,,A*6F

$GPGGA,093657.200,6228.1568,N,00614.2242,E,1,10,0.88,13.1,M,43.3,M,,*57
$GPRMC,093657.200,A,6228.1568,N,00614.2242,E,0.47,317.76,050516,,,A*63

$GPGGA,093657.400,6228.1568,N,00614.2241,E,1,10,0.88,13.1,M,43.3,M,,*52
$GPRMC,093657.400,A,6228.1568,N,00614.2241,E,0.44,318.54,050516,,,A*6A

$GPGGA,093657.600,6228.1568,N,00614.2242,E,1,10,0.88,13.1,M,43.3,M,,*53
$GPRMC,093657.600,A,6228.1568,N,00614.2242,E,0.40,321.71,050516,,,A*62

$GPGGA,093657.800,6228.1569,N,00614.2242,E,1,10,0.88,13.0,M,43.3,M,,*5D
$GPRMC,093657.800,A,6228.1569,N,00614.2242,E,0.38,338.24,050516,,,A*6A

$GPGGA,093658.000,6228.1569,N,00614.2243,E,1,10,0.88,13.0,M,43.3,M,,*5B
$GPRMC,093658.000,A,6228.1569,N,00614.2243,E,0.16,343.91,050516,,,A*62

$GPGGA,093658.200,6228.1569,N,00614.2243,E,1,10,0.88,13.0,M,43.3,M,,*59
$GPRMC,093658.200,A,6228.1569,N,00614.2243,E,0.11,324.91,050516,,,A*66

$GPGGA,093658.400,6228.1569,N,00614.2243,E,1,10,0.88,13.0,M,43.3,M,,*5F
$GPRMC,093658.400,A,6228.1569,N,00614.2243,E,0.09,310.28,050516,,,A*6C

$GPGGA,093658.600,6228.1569,N,00614.2244,E,1,09,0.99,13.0,M,43.3,M,,*52
$GPRMC,093658.600,A,6228.1569,N,00614.2244,E,0.02,325.23,050516,,,A*6F

$GPGGA,093658.800,6228.1569,N,00614.2244,E,1,10,0.88,12.9,M,43.3,M,,*5C
$GPRMC,093658.800,A,6228.1569,N,00614.2244,E,0.07,88.80,050516,,,A*59

$GPGGA,093659.000,6228.1569,N,00614.2244,E,1,10,0.88,12.9,M,43.3,M,,*55
$GPRMC,093659.000,A,6228.1569,N,00614.2244,E,0.05,68.68,050516,,,A*5A

$GPGGA,093659.200,6228.1569,N,00614.2245,E,1,10,0.88,12.9,M,43.3,M,,*56
$GPRMC,093659.200,A,6228.1569,N,00614.2245,E,0.06,57.52,050516,,,A*5F

$GPGGA,093659.400,6228.1569,N,00614.2245,E,1,10,0.88,12.8,M,43.3,M,,*51
$GPRMC,093659.400,A,6228.1569,N,00614.2245,E,0.07,22.65,050516,,,A*5E

$GPGGA,093659.600,6228.1569,N,00614.2245,E,1,10,0.88,12.8,M,43.3,M,,*53
$GPRMC,093659.600,A,6228.1569,N,00614.2245,E,0.21,355.12,050516,,,A*6B

$GPGGA,093659.800,6228.1570,N,00614.2245,E,1,10,1.02,12.8,M,43.3,M,,*56
$GPRMC,093659.800,A,6228.1570,N,00614.2245,E,0.18,17.40,050516,,,A*55

$GPGGA,093700.000,6228.1570,N,00614.2245,E,1,10,0.88,12.8,M,43.3,M,,*50
$GPRMC,093700.000,A,6228.1570,N,00614.2245,E,0.11,38.54,050516,,,A*51

$GPGGA,093700.200,6228.1570,N,00614.2245,E,1,10,0.88,12.8,M,43.3,M,,*52
$GPRMC,093700.200,A,6228.1570,N,00614.2245,E,0.07,53.40,050516,,,A*5C

$GPGGA,093700.400,6228.1570,N,00614.2245,E,1,10,0.88,12.8,M,43.3,M,,*54
$GPRMC,093700.400,A,6228.1570,N,00614.2245,E,0.03,44.09,050516,,,A*55

$GPGGA,093700.600,6228.1570,N,00614.2245,E,1,10,0.88,12.8,M,43.3,M,,*56
$GPRMC,093700.600,A,6228.1570,N,00614.2245,E,0.11,93.16,050516,,,A*50

$GPGGA,093700.800,6228.1570,N,00614.2246,E,1,10,0.88,12.8,M,43.3,M,,*5B
$GPRMC,093700.800,A,6228.1570,N,00614.2246,E,0.26,98.65,050516,,,A*56

$GPGGA,093701.000,6228.1570,N,00614.2246,E,1,10,0.88,12.8,M,43.3,M,,*52
$GPRMC,093701.000,A,6228.1570,N,00614.2246,E,0.74,99.01,050516,,,A*5B

$GPGGA,093701.200,6228.1570,N,00614.2247,E,1,10,0.88,12.8,M,43.3,M,,*51
$GPRMC,093701.200,A,6228.1570,N,00614.2247,E,0.10,107.11,050516,,,A*6D

$GPGGA,093701.400,6228.1570,N,00614.2247,E,1,10,0.88,12.8,M,43.3,M,,*57
$GPRMC,093701.400,A,6228.1570,N,00614.2247,E,0.29,343.86,050516,,,A*6D

$GPGGA,093701.600,6228.1570,N,00614.2247,E,1,10,0.88,12.7,M,43.3,M,,*5A
$GPRMC,093701.600,A,6228.1570,N,00614.2247,E,0.59,318.28,050516,,,A*62

$GPGGA,093701.800,6228.1571,N,00614.2247,E,1,10,0.88,12.6,M,43.3,M,,*54
$GPRMC,093701.800,A,6228.1571,N,00614.2247,E,1.34,319.83,050516,,,A*67

$GPGGA,093702.000,6228.1571,N,00614.2246,E,1,10,0.88,12.6,M,43.3,M,,*5E
$GPRMC,093702.000,A,6228.1571,N,00614.2246,E,0.71,288.03,050516,,,A*6C

$GPGGA,093702.200,6228.1571,N,00614.2246,E,1,10,0.88,12.5,M,43.3,M,,*5F
$GPRMC,093702.200,A,6228.1571,N,00614.2246,E,0.38,14.90,050516,,,A*5E

$GPGGA,093702.400,6228.1572,N,00614.2247,E,1,10,1.02,12.5,M,43.3,M,,*58
$GPRMC,093702.400,A,6228.1572,N,00614.2247,E,0.43,36.22,050516,,,A*5F

$GPGGA,093702.600,6228.1572,N,00614.2248,E,1,10,0.88,12.5,M,43.3,M,,*56
$GPRMC,093702.600,A,6228.1572,N,00614.2248,E,0.47,46.02,050516,,,A*53

$GPGGA,093702.800,6228.1572,N,00614.2249,E,1,10,0.88,12.5,M,43.3,M,,*59
$GPRMC,093702.800,A,6228.1572,N,00614.2249,E,0.45,59.04,050516,,,A*56

$GPGGA,093703.000,6228.1572,N,00614.2249,E,1,10,0.88,12.4,M,43.3,M,,*51
$GPRMC,093703.000,A,6228.1572,N,00614.2249,E,0.30,61.57,050516,,,A*50

$GPGGA,093703.200,6228.1572,N,00614.2249,E,1,10,0.88,12.4,M,43.3,M,,*53
$GPRMC,093703.200,A,6228.1572,N,00614.2249,E,0.37,1.43,050516,,,A*66

$GPGGA,093703.400,6228.1573,N,00614.2249,E,1,10,1.02,12.4,M,43.3,M,,*57
$GPRMC,093703.400,A,6228.1573,N,00614.2249,E,0.51,342.05,050516,,,A*67

$GPGGA,093703.600,6228.1573,N,00614.2249,E,1,10,0.88,12.3,M,43.3,M,,*51
$GPRMC,093703.600,A,6228.1573,N,00614.2249,E,0.34,334.14,050516,,,A*67

$GPGGA,093703.800,6228.1573,N,00614.2248,E,1,10,0.88,12.3,M,43.3,M,,*5E
$GPRMC,093703.800,A,6228.1573,N,00614.2248,E,0.37,330.10,050516,,,A*6B

$GPGGA,093704.000,6228.1573,N,00614.2248,E,1,10,0.88,12.3,M,43.3,M,,*51
$GPRMC,093704.000,A,6228.1573,N,00614.2248,E,0.39,334.83,050516,,,A*64

$GPGGA,093704.200,6228.1573,N,00614.2248,E,1,10,0.88,12.3,M,43.3,M,,*53
$GPRMC,093704.200,A,6228.1573,N,00614.2248,E,0.38,333.58,050516,,,A*66

$GPGGA,093704.400,6228.1573,N,00614.2248,E,1,10,0.88,12.3,M,43.3,M,,*55
$GPRMC,093704.400,A,6228.1573,N,00614.2248,E,0.37,330.11,050516,,,A*61

$GPGGA,093704.600,6228.1573,N,00614.2247,E,1,10,0.88,12.2,M,43.3,M,,*59
$GPRMC,093704.600,A,6228.1573,N,00614.2247,E,0.37,327.02,050516,,,A*68

$GPGGA,093704.800,6228.1573,N,00614.2247,E,1,10,0.88,12.2,M,43.3,M,,*57
$GPRMC,093704.800,A,6228.1573,N,00614.2247,E,0.35,325.11,050516,,,A*64

$GPGGA,093705.000,6228.1574,N,00614.2247,E,1,10,0.88,12.2,M,43.3,M,,*59
$GPRMC,093705.000,A,6228.1574,N,00614.2247,E,0.30,331.26,050516,,,A*6E

$GPGGA,093705.200,6228.1574,N,00614.2247,E,1,10,0.88,12.2,M,43.3,M,,*5B
$GPRMC,093705.200,A,6228.1574,N,00614.2247,E,0.30,333.23,050516,,,A*6B

$GPGGA,093705.400,6228.1574,N,00614.2247,E,1,10,0.88,12.2,M,43.3,M,,*5D
$GPRMC,093705.400,A,6228.1574,N,00614.2247,E,0.26,323.30,050516,,,A*69

$GPGGA,093705.600,6228.1574,N,00614.2247,E,1,10,0.88,12.2,M,43.3,M,,*5F
$GPRMC,093705.600,A,6228.1574,N,00614.2247,E,0.22,308.43,050516,,,A*62

$GPGGA,093705.800,6228.1574,N,00614.2246,E,1,10,0.88,12.2,M,43.3,M,,*50
$GPRMC,093705.800,A,6228.1574,N,00614.2246,E,0.13,282.19,050516,,,A*63

$GPGGA,093706.000,6228.1574,N,00614.2246,E,1,10,0.88,12.2,M,43.3,M,,*5B
$GPRMC,093706.000,A,6228.1574,N,00614.2246,E,0.13,244.72,050516,,,A*6F

$GPGGA,093706.200,6228.1574,N,00614.2246,E,1,10,0.88,12.2,M,43.3,M,,*59
$GPRMC,093706.200,A,6228.1574,N,00614.2246,E,0.16,229.26,050516,,,A*62

$GPGGA,093706.400,6228.1574,N,00614.2246,E,1,10,0.88,12.2,M,43.3,M,,*5F
$GPRMC,093706.400,A,6228.1574,N,00614.2246,E,0.25,209.23,050516,,,A*63

$GPGGA,093706.600,6228.1573,N,00614.2246,E,1,10,0.88,12.2,M,43.3,M,,*5A
$GPRMC,093706.600,A,6228.1573,N,00614.2246,E,0.46,182.03,050516,,,A*61

$GPGGA,093706.800,6228.1573,N,00614.2246,E,1,10,0.88,12.2,M,43.3,M,,*54
$GPRMC,093706.800,A,6228.1573,N,00614.2246,E,0.64,172.80,050516,,,A*6B

$GPGGA,093707.000,6228.1572,N,00614.2247,E,1,10,0.88,12.1,M,43.3,M,,*5E
$GPRMC,093707.000,A,6228.1572,N,00614.2247,E,0.73,163.35,050516,,,A*6A

$GPGGA,093707.200,6228.1572,N,00614.2247,E,1,10,0.88,12.1,M,43.3,M,,*5C
$GPRMC,093707.200,A,6228.1572,N,00614.2247,E,0.77,163.12,050516,,,A*69

$GPGGA,093707.400,6228.1571,N,00614.2247,E,1,10,0.88,12.1,M,43.3,M,,*59
$GPRMC,093707.400,A,6228.1571,N,00614.2247,E,0.80,166.01,050516,,,A*63

$GPGGA,093707.600,6228.1570,N,00614.2248,E,1,10,0.88,12.1,M,43.3,M,,*55
$GPRMC,093707.600,A,6228.1570,N,00614.2248,E,0.95,163.54,050516,,,A*6E

$GPGGA,093707.800,6228.1570,N,00614.2248,E,1,10,0.88,12.1,M,43.3,M,,*5B
$GPRMC,093707.800,A,6228.1570,N,00614.2248,E,0.94,164.38,050516,,,A*6C

$GPGGA,093708.000,6228.1569,N,00614.2249,E,1,10,0.88,12.0,M,43.3,M,,*54
$GPRMC,093708.000,A,6228.1569,N,00614.2249,E,0.95,161.73,050516,,,A*69

$GPGGA,093708.200,6228.1568,N,00614.2249,E,1,10,0.88,12.0,M,43.3,M,,*57
$GPRMC,093708.200,A,6228.1568,N,00614.2249,E,0.64,172.78,050516,,,A*6D

$GPGGA,093708.400,6228.1568,N,00614.2249,E,1,10,0.88,12.0,M,43.3,M,,*51
$GPRMC,093708.400,A,6228.1568,N,00614.2249,E,0.65,197.36,050516,,,A*6B

$GPGGA,093708.600,6228.1567,N,00614.2249,E,1,10,0.88,12.0,M,43.3,M,,*5C
$GPRMC,093708.600,A,6228.1567,N,00614.2249,E,0.92,189.01,050516,,,A*65

$GPGGA,093708.800,6228.1565,N,00614.2250,E,1,10,0.88,11.9,M,43.3,M,,*52
$GPRMC,093708.800,A,6228.1565,N,00614.2250,E,1.10,169.23,050516,,,A*64

$GPGGA,093709.000,6228.1565,N,00614.2251,E,1,10,0.88,11.9,M,43.3,M,,*5A
$GPRMC,093709.000,A,6228.1565,N,00614.2251,E,1.34,138.07,050516,,,A*68

$GPGGA,093709.200,6228.1564,N,00614.2252,E,1,10,0.88,11.9,M,43.3,M,,*5A
$GPRMC,093709.200,A,6228.1564,N,00614.2252,E,1.16,154.00,050516,,,A*65

$GPGGA,093709.400,6228.1563,N,00614.2252,E,1,10,0.88,11.9,M,43.3,M,,*5B
$GPRMC,093709.400,A,6228.1563,N,00614.2252,E,0.99,182.22,050516,,,A*69

$GPGGA,093709.600,6228.1563,N,00614.2252,E,1,10,0.88,11.8,M,43.3,M,,*58
$GPRMC,093709.600,A,6228.1563,N,00614.2252,E,0.81,182.86,050516,,,A*6C

$GPGGA,093709.800,6228.1563,N,00614.2253,E,1,10,0.88,11.8,M,43.3,M,,*57
$GPRMC,093709.800,A,6228.1563,N,00614.2253,E,0.77,169.70,050516,,,A*66

$GPGGA,093710.000,6228.1562,N,00614.2252,E,1,10,0.88,11.8,M,43.3,M,,*57
$GPRMC,093710.000,A,6228.1562,N,00614.2252,E,1.01,185.31,050516,,,A*61

$GPGGA,093710.200,6228.1561,N,00614.2251,E,1,10,0.88,11.7,M,43.3,M,,*5A
$GPRMC,093710.200,A,6228.1561,N,00614.2251,E,0.97,213.13,050516,,,A*61

$GPGGA,093710.400,6228.1560,N,00614.2250,E,1,10,0.88,11.7,M,43.3,M,,*5C
$GPRMC,093710.400,A,6228.1560,N,00614.2250,E,1.08,217.48,050516,,,A*6A

$GPGGA,093710.600,6228.1559,N,00614.2249,E,1,10,0.88,11.7,M,43.3,M,,*5C
$GPRMC,093710.600,A,6228.1559,N,00614.2249,E,1.08,216.92,050516,,,A*6C

$GPGGA,093710.800,6228.1559,N,00614.2248,E,1,10,0.88,11.6,M,43.3,M,,*52
$GPRMC,093710.800,A,6228.1559,N,00614.2248,E,1.09,210.78,050516,,,A*60

$GPGGA,093711.000,6228.1558,N,00614.2248,E,1,10,0.88,11.6,M,43.3,M,,*5A
$GPRMC,093711.000,A,6228.1558,N,00614.2248,E,0.96,215.23,050516,,,A*64

$GPGGA,093711.200,6228.1558,N,00614.2247,E,1,10,0.88,11.6,M,43.3,M,,*57
$GPRMC,093711.200,A,6228.1558,N,00614.2247,E,0.96,215.47,050516,,,A*6B

$GPGGA,093711.400,6228.1557,N,00614.2246,E,1,10,0.88,11.6,M,43.3,M,,*5F
$GPRMC,093711.400,A,6228.1557,N,00614.2246,E,0.91,214.08,050516,,,A*6E

$GPGGA,093711.600,6228.1557,N,00614.2245,E,1,10,0.88,11.5,M,43.3,M,,*5D
$GPRMC,093711.600,A,6228.1557,N,00614.2245,E,0.87,217.62,050516,,,A*67

$GPGGA,093711.800,6228.1556,N,00614.2246,E,1,10,0.88,11.5,M,43.3,M,,*51
$GPRMC,093711.800,A,6228.1556,N,00614.2246,E,0.74,203.23,050516,,,A*67

$GPGGA,093712.000,6228.1556,N,00614.2245,E,1,10,0.88,11.4,M,43.3,M,,*58
$GPRMC,093712.000,A,6228.1556,N,00614.2245,E,0.68,209.89,050516,,,A*68

$GPGGA,093712.200,6228.1556,N,00614.2245,E,1,10,0.88,11.4,M,43.3,M,,*5A
$GPRMC,093712.200,A,6228.1556,N,00614.2245,E,0.67,209.22,050516,,,A*64

$GPGGA,093712.400,6228.1555,N,00614.2245,E,1,10,0.88,11.4,M,43.3,M,,*5F
$GPRMC,093712.400,A,6228.1555,N,00614.2245,E,0.59,208.41,050516,,,A*68

$GPGGA,093712.600,6228.1555,N,00614.2245,E,1,10,0.88,11.3,M,43.3,M,,*5A
$GPRMC,093712.600,A,6228.1555,N,00614.2245,E,0.51,208.34,050516,,,A*60

$GPGGA,093712.800,6228.1555,N,00614.2245,E,1,10,0.88,11.3,M,43.3,M,,*54
$GPRMC,093712.800,A,6228.1555,N,00614.2245,E,0.33,199.39,050516,,,A*6C

$GPGGA,093713.000,6228.1555,N,00614.2245,E,1,10,0.88,11.3,M,43.3,M,,*5D
$GPRMC,093713.000,A,6228.1555,N,00614.2245,E,0.28,196.72,050516,,,A*6F

$GPGGA,093713.200,6228.1555,N,00614.2245,E,1,10,0.88,11.2,M,43.3,M,,*5E
$GPRMC,093713.200,A,6228.1555,N,00614.2245,E,0.15,158.29,050516,,,A*6F

$GPGGA,093713.400,6228.1555,N,00614.2245,E,1,10,0.88,11.2,M,43.3,M,,*58
$GPRMC,093713.400,A,6228.1555,N,00614.2245,E,0.17,189.47,050516,,,A*6F

$GPGGA,093713.600,6228.1555,N,00614.2245,E,1,10,0.88,11.2,M,43.3,M,,*5A
$GPRMC,093713.600,A,6228.1555,N,00614.2245,E,0.11,150.95,050516,,,A*60

$GPGGA,093713.800,6228.1554,N,00614.2245,E,1,10,0.88,11.1,M,43.3,M,,*56
$GPRMC,093713.800,A,6228.1554,N,00614.2245,E,0.06,82.78,050516,,,A*54

$GPGGA,093714.000,6228.1554,N,00614.2245,E,1,10,0.88,11.1,M,43.3,M,,*59
$GPRMC,093714.000,A,6228.1554,N,00614.2245,E,0.03,146.38,050516,,,A*63

$GPGGA,093714.200,6228.1554,N,00614.2245,E,1,10,0.88,11.1,M,43.3,M,,*5B
$GPRMC,093714.200,A,6228.1554,N,00614.2245,E,0.05,340.65,050516,,,A*6B

$GPGGA,093714.400,6228.1554,N,00614.2244,E,1,10,0.88,11.1,M,43.3,M,,*5C
$GPRMC,093714.400,A,6228.1554,N,00614.2244,E,0.25,316.06,050516,,,A*68

$GPGGA,093714.600,6228.1554,N,00614.2243,E,1,10,0.88,11.1,M,43.3,M,,*59
$GPRMC,093714.600,A,6228.1554,N,00614.2243,E,0.40,315.07,050516,,,A*6C

$GPGGA,093714.800,6228.1554,N,00614.2242,E,1,10,0.88,11.0,M,43.3,M,,*57
$GPRMC,093714.800,A,6228.1554,N,00614.2242,E,0.77,309.46,050516,,,A*6F

$GPGGA,093715.000,6228.1554,N,00614.2241,E,1,10,0.88,11.0,M,43.3,M,,*5D
$GPRMC,093715.000,A,6228.1554,N,00614.2241,E,0.66,329.89,050516,,,A*64

$GPGGA,093715.200,6228.1554,N,00614.2240,E,1,10,0.88,11.0,M,43.3,M,,*5E
$GPRMC,093715.200,A,6228.1554,N,00614.2240,E,0.56,329.29,050516,,,A*6E

$GPGGA,093715.400,6228.1554,N,00614.2240,E,1,10,0.88,11.0,M,43.3,M,,*58
$GPRMC,093715.400,A,6228.1554,N,00614.2240,E,0.32,329.13,050516,,,A*63

$GPGGA,093715.600,6228.1554,N,00614.2240,E,1,10,0.88,10.9,M,43.3,M,,*52
$GPRMC,093715.600,A,6228.1554,N,00614.2240,E,0.23,329.00,050516,,,A*63

$GPGGA,093715.800,6228.1554,N,00614.2239,E,1,10,1.02,10.9,M,43.3,M,,*51
$GPRMC,093715.800,A,6228.1554,N,00614.2239,E,0.13,328.84,050516,,,A*6D

$GPGGA,093716.000,6228.1554,N,00614.2239,E,1,10,1.02,10.8,M,43.3,M,,*5B
$GPRMC,093716.000,A,6228.1554,N,00614.2239,E,0.09,328.65,050516,,,A*62

$GPGGA,093716.200,6228.1554,N,00614.2239,E,1,10,1.02,10.8,M,43.3,M,,*59
$GPRMC,093716.200,A,6228.1554,N,00614.2239,E,0.10,328.39,050516,,,A*61

$GPGGA,093716.400,6228.1554,N,00614.2238,E,1,10,1.02,10.8,M,43.3,M,,*5E
$GPRMC,093716.400,A,6228.1554,N,00614.2238,E,0.15,328.09,050516,,,A*60

$GPGGA,093716.600,6228.1554,N,00614.2237,E,1,10,1.02,10.8,M,43.3,M,,*53
$GPRMC,093716.600,A,6228.1554,N,00614.2237,E,0.30,327.44,050516,,,A*6C

$GPGGA,093716.800,6228.1554,N,00614.2237,E,1,10,0.88,10.8,M,43.3,M,,*5E
$GPRMC,093716.800,A,6228.1554,N,00614.2237,E,0.24,327.27,050516,,,A*62

$GPGGA,093717.000,6228.1554,N,00614.2236,E,1,10,0.88,10.7,M,43.3,M,,*59
$GPRMC,093717.000,A,6228.1554,N,00614.2236,E,0.25,326.95,050516,,,A*63

$GPGGA,093717.200,6228.1554,N,00614.2236,E,1,10,0.88,10.7,M,43.3,M,,*5B
$GPRMC,093717.200,A,6228.1554,N,00614.2236,E,0.20,326.63,050516,,,A*6D

$GPGGA,093717.400,6228.1554,N,00614.2236,E,1,10,0.88,10.7,M,43.3,M,,*5D
$GPRMC,093717.400,A,6228.1554,N,00614.2236,E,0.20,326.46,050516,,,A*6C

$GPGGA,093717.600,6228.1554,N,00614.2236,E,1,10,0.88,10.7,M,43.3,M,,*5F
$GPRMC,093717.600,A,6228.1554,N,00614.2236,E,0.14,326.46,050516,,,A*69

$GPGGA,093717.800,6228.1554,N,00614.2235,E,1,10,0.88,10.7,M,43.3,M,,*52
$GPRMC,093717.800,A,6228.1554,N,00614.2235,E,0.19,326.04,050516,,,A*6F

$GPGGA,093718.000,6228.1554,N,00614.2235,E,1,10,0.88,10.6,M,43.3,M,,*54
$GPRMC,093718.000,A,6228.1554,N,00614.2235,E,0.12,325.90,050516,,,A*6D

$GPGGA,093718.200,6228.1554,N,00614.2235,E,1,10,0.88,10.6,M,43.3,M,,*56
$GPRMC,093718.200,A,6228.1554,N,00614.2235,E,0.16,325.79,050516,,,A*6C

$GPGGA,093718.400,6228.1554,N,00614.2234,E,1,10,0.88,10.6,M,43.3,M,,*51
$GPRMC,093718.400,A,6228.1554,N,00614.2234,E,0.20,325.90,050516,,,A*69

$GPGGA,093718.600,6228.1555,N,00614.2234,E,1,10,0.88,10.6,M,43.3,M,,*52
$GPRMC,093718.600,A,6228.1555,N,00614.2234,E,0.08,325.95,050516,,,A*65

$GPGGA,093718.800,6228.1555,N,00614.2234,E,1,10,0.88,10.6,M,43.3,M,,*5C
$GPRMC,093718.800,A,6228.1555,N,00614.2234,E,0.03,326.11,050516,,,A*6F

$GPGGA,093719.000,6228.1555,N,00614.2234,E,1,10,1.02,10.6,M,43.3,M,,*56
$GPRMC,093719.000,A,6228.1555,N,00614.2234,E,0.06,326.51,050516,,,A*67

$GPGGA,093719.200,6228.1555,N,00614.2234,E,1,10,0.88,10.6,M,43.3,M,,*57
$GPRMC,093719.200,A,6228.1555,N,00614.2234,E,0.10,326.44,050516,,,A*66

$GPGGA,093719.400,6228.1555,N,00614.2234,E,1,10,0.88,10.6,M,43.3,M,,*51
$GPRMC,093719.400,A,6228.1555,N,00614.2234,E,0.10,326.57,050516,,,A*62

$GPGGA,093719.600,6228.1554,N,00614.2235,E,1,10,0.88,10.6,M,43.3,M,,*53
$GPRMC,093719.600,A,6228.1554,N,00614.2235,E,0.37,326.84,050516,,,A*6B

$GPGGA,093719.800,6228.1554,N,00614.2235,E,1,10,0.88,10.6,M,43.3,M,,*5D
$GPRMC,093719.800,A,6228.1554,N,00614.2235,E,0.87,330.16,050516,,,A*62

$GPGGA,093720.000,6228.1554,N,00614.2235,E,1,10,0.88,10.5,M,43.3,M,,*5C
$GPRMC,093720.000,A,6228.1554,N,00614.2235,E,0.94,105.76,050516,,,A*60

$GPGGA,093720.200,6228.1554,N,00614.2236,E,1,10,0.88,10.5,M,43.3,M,,*5D
$GPRMC,093720.200,A,6228.1554,N,00614.2236,E,1.09,113.49,050516,,,A*6F

$GPGGA,093720.400,6228.1553,N,00614.2237,E,1,10,0.88,10.5,M,43.3,M,,*5D
$GPRMC,093720.400,A,6228.1553,N,00614.2237,E,1.09,100.93,050516,,,A*6A

$GPGGA,093720.600,6228.1553,N,00614.2237,E,1,10,0.88,10.5,M,43.3,M,,*5F
